{
  "locations": [
    {
      "id": "abbeville_al",
      "label": "Abbeville, AL",
      "lat": 31.5702088,
      "lon": -85.2503315
    },
    {
      "id": "abbeville_sc",
      "label": "Abbeville, SC",
      "lat": 34.2264946,
      "lon": -82.4364036
    },
    {
      "id": "aberdeen_ms",
      "label": "Aberdeen, MS",
      "lat": 33.8251139,
      "lon": -88.5436553
    },
    {
      "id": "abilene_ks",
      "label": "Abilene, KS",
      "lat": 38.917252,
      "lon": -97.21377
    },
    {
      "id": "abingdon_va",
      "label": "Abingdon, VA",
      "lat": 36.7104018,
      "lon": -81.975249
    },
    {
      "id": "acworth_ga",
      "label": "Acworth, GA",
      "lat": 34.0659329,
      "lon": -84.6768796
    },
    {
      "id": "ada_mn",
      "label": "Ada, MN",
      "lat": 47.299689,
      "lon": -96.5153463
    },
    {
      "id": "adairsville_ga",
      "label": "Adairsville, GA",
      "lat": 34.3683267,
      "lon": -84.9349057
    },
    {
      "id": "adamsville_al",
      "label": "Adamsville, AL",
      "lat": 33.6009389,
      "lon": -86.9561059
    },
    {
      "id": "adel_ga",
      "label": "Adel, GA",
      "lat": 31.1371358,
      "lon": -83.4234936
    },
    {
      "id": "adelaide_sa",
      "label": "Adelaide, SA",
      "lat": -34.9281805,
      "lon": 138.5999312
    },
    {
      "id": "advance_nc",
      "label": "Advance, NC",
      "lat": 35.9412851,
      "lon": -80.4096455
    },
    {
      "id": "aiken_sc",
      "label": "Aiken, SC",
      "lat": 33.5723191,
      "lon": -81.6182086
    },
    {
      "id": "akron_oh",
      "label": "Akron, OH",
      "lat": 41.083064,
      "lon": -81.518485
    },
    {
      "id": "alabaster_al",
      "label": "Alabaster, AL",
      "lat": 33.2442813,
      "lon": -86.8163773
    },
    {
      "id": "alameda_ca",
      "label": "Alameda, CA",
      "lat": 37.6090291,
      "lon": -121.899142
    },
    {
      "id": "albany_ga",
      "label": "Albany, GA",
      "lat": 31.5782062,
      "lon": -84.1556809
    },
    {
      "id": "albany_ky",
      "label": "Albany, KY",
      "lat": 36.6917878,
      "lon": -85.1353856
    },
    {
      "id": "albany_ny",
      "label": "Albany, NY",
      "lat": 42.6511674,
      "lon": -73.754968
    },
    {
      "id": "albemarle_nc",
      "label": "Albemarle, NC",
      "lat": 35.3501426,
      "lon": -80.2000578
    },
    {
      "id": "albertville_al",
      "label": "Albertville, AL",
      "lat": 34.2675937,
      "lon": -86.2088669
    },
    {
      "id": "albuquerque_nm",
      "label": "Albuquerque, NM",
      "lat": 35.0841034,
      "lon": -106.650985
    },
    {
      "id": "alexander_city_al",
      "label": "Alexander City, AL",
      "lat": 32.944012,
      "lon": -85.9538532
    },
    {
      "id": "alexander_ia",
      "label": "Alexander, IA",
      "lat": 42.8060488,
      "lon": -93.4765653
    },
    {
      "id": "alexandria_la",
      "label": "Alexandria, LA",
      "lat": 31.3119463,
      "lon": -92.4453558
    },
    {
      "id": "alexandria_va",
      "label": "Alexandria, VA",
      "lat": 38.8051095,
      "lon": -77.0470229
    },
    {
      "id": "alford_fl",
      "label": "Alford, FL",
      "lat": 30.6936569,
      "lon": -85.3918968
    },
    {
      "id": "algonquin_il",
      "label": "Algonquin, IL",
      "lat": 42.1655801,
      "lon": -88.2942493
    },
    {
      "id": "allen_park_mi",
      "label": "Allen Park, MI",
      "lat": 42.2595071,
      "lon": -83.2107671
    },
    {
      "id": "allentown_pa",
      "label": "Allentown, PA",
      "lat": 40.6022552,
      "lon": -75.4716115
    },
    {
      "id": "almere_fl",
      "label": "Almere, FL",
      "lat": 52.3705038,
      "lon": 5.2185859
    },
    {
      "id": "almo_ky",
      "label": "Almo, KY",
      "lat": 36.6947773,
      "lon": -88.2783694
    },
    {
      "id": "alpharetta_ga",
      "label": "Alpharetta, GA",
      "lat": 34.0755962,
      "lon": -84.2945964
    },
    {
      "id": "alpine_ca",
      "label": "Alpine, CA",
      "lat": 38.5893934,
      "lon": -119.8345013
    },
    {
      "id": "alpine_tn",
      "label": "Alpine, TN",
      "lat": 36.3947865,
      "lon": -85.2169065
    },
    {
      "id": "altamonte_springs_fl",
      "label": "Altamonte Springs, FL",
      "lat": 28.6619154,
      "lon": -81.3885899
    },
    {
      "id": "alto_ga",
      "label": "Alto, GA",
      "lat": 34.4631965,
      "lon": -83.5739356
    },
    {
      "id": "altoona_al",
      "label": "Altoona, AL",
      "lat": 34.025609,
      "lon": -86.3258835
    },
    {
      "id": "altoona_pa",
      "label": "Altoona, PA",
      "lat": 40.5193586,
      "lon": -78.3968299
    },
    {
      "id": "alvarado_tx",
      "label": "Alvarado, TX",
      "lat": 32.4095565,
      "lon": -97.2102881
    },
    {
      "id": "americus_ga",
      "label": "Americus, GA",
      "lat": 32.0723862,
      "lon": -84.2326876
    },
    {
      "id": "ames_ia",
      "label": "Ames, IA",
      "lat": 42.0267567,
      "lon": -93.6170448
    },
    {
      "id": "amesbury_ma",
      "label": "Amesbury, MA",
      "lat": 42.8579536,
      "lon": -70.9300921
    },
    {
      "id": "amherst_oh",
      "label": "Amherst, OH",
      "lat": 41.3978217,
      "lon": -82.2223775
    },
    {
      "id": "anacortes_wa",
      "label": "Anacortes, WA",
      "lat": 48.516844,
      "lon": -122.6125717
    },
    {
      "id": "anaheim_ca",
      "label": "Anaheim, CA",
      "lat": 33.8347516,
      "lon": -117.911732
    },
    {
      "id": "anchorage_ak",
      "label": "Anchorage, AK",
      "lat": 61.2163129,
      "lon": -149.894852
    },
    {
      "id": "andalusia_al",
      "label": "Andalusia, AL",
      "lat": 31.3080607,
      "lon": -86.482424
    },
    {
      "id": "anderson_sc",
      "label": "Anderson, SC",
      "lat": 34.5258335,
      "lon": -82.652962
    },
    {
      "id": "ankeny_ia",
      "label": "Ankeny, IA",
      "lat": 41.7320796,
      "lon": -93.605092
    },
    {
      "id": "ann_arbor_mi",
      "label": "Ann Arbor, MI",
      "lat": 42.2813722,
      "lon": -83.7484616
    },
    {
      "id": "anniston_al",
      "label": "Anniston, AL",
      "lat": 33.6624824,
      "lon": -85.8283224
    },
    {
      "id": "anoka_mn",
      "label": "Anoka, MN",
      "lat": 45.2710195,
      "lon": -93.2827625
    },
    {
      "id": "apex_nc",
      "label": "Apex, NC",
      "lat": 35.7325352,
      "lon": -78.8505516
    },
    {
      "id": "apison_tn",
      "label": "Apison, TN",
      "lat": 35.0213397,
      "lon": -85.0034027
    },
    {
      "id": "apollo_beach_fl",
      "label": "Apollo Beach, FL",
      "lat": 27.7741547,
      "lon": -82.4062097
    },
    {
      "id": "apopka_fl",
      "label": "Apopka, FL",
      "lat": 28.6732806,
      "lon": -81.5116471
    },
    {
      "id": "apple_valley_ca",
      "label": "Apple Valley, CA",
      "lat": 34.5008311,
      "lon": -117.1858759
    },
    {
      "id": "applegate_ca",
      "label": "Applegate, CA",
      "lat": 39.0008573,
      "lon": -120.9920321
    },
    {
      "id": "arab_al",
      "label": "Arab, AL",
      "lat": 34.3181497,
      "lon": -86.4958219
    },
    {
      "id": "arbyrd_mo",
      "label": "Arbyrd, MO",
      "lat": 36.0499107,
      "lon": -90.2395935
    },
    {
      "id": "archer_fl",
      "label": "Archer, FL",
      "lat": 29.5299677,
      "lon": -82.5189969
    },
    {
      "id": "arden_nc",
      "label": "Arden, NC",
      "lat": 35.4661821,
      "lon": -82.5164242
    },
    {
      "id": "ariton_al",
      "label": "Ariton, AL",
      "lat": 31.6001655,
      "lon": -85.7188298
    },
    {
      "id": "arley_al",
      "label": "Arley, AL",
      "lat": 34.0800419,
      "lon": -87.2125687
    },
    {
      "id": "arlington_tn",
      "label": "Arlington, TN",
      "lat": 35.2964487,
      "lon": -89.6617313
    },
    {
      "id": "arlington_tx",
      "label": "Arlington, TX",
      "lat": 32.7355816,
      "lon": -97.1071186
    },
    {
      "id": "arlington_wa",
      "label": "Arlington, WA",
      "lat": 48.1810957,
      "lon": -122.1389548
    },
    {
      "id": "arnold_mo",
      "label": "Arnold, MO",
      "lat": 38.4226711,
      "lon": -90.3758287
    },
    {
      "id": "arrington_tn",
      "label": "Arrington, TN",
      "lat": 35.8676656,
      "lon": -86.7096095
    },
    {
      "id": "arvada_co",
      "label": "Arvada, CO",
      "lat": 39.8005505,
      "lon": -105.0811573
    },
    {
      "id": "ash_flat_ar",
      "label": "Ash Flat, AR",
      "lat": 36.2298765,
      "lon": -91.6061148
    },
    {
      "id": "asheboro_nc",
      "label": "Asheboro, NC",
      "lat": 35.7079146,
      "lon": -79.8136446
    },
    {
      "id": "asheville_nc",
      "label": "Asheville, NC",
      "lat": 35.595363,
      "lon": -82.5508407
    },
    {
      "id": "ashland_al",
      "label": "Ashland, AL",
      "lat": 33.2737256,
      "lon": -85.8360741
    },
    {
      "id": "ashland_ky",
      "label": "Ashland, KY",
      "lat": 38.4784144,
      "lon": -82.6379387
    },
    {
      "id": "ashland_mo",
      "label": "Ashland, MO",
      "lat": 38.7744802,
      "lon": -92.2571304
    },
    {
      "id": "ashland_ne",
      "label": "Ashland, NE",
      "lat": 41.0391711,
      "lon": -96.3683917
    },
    {
      "id": "ashland_or",
      "label": "Ashland, OR",
      "lat": 42.1972487,
      "lon": -122.7153995
    },
    {
      "id": "astatula_fl",
      "label": "Astatula, FL",
      "lat": 28.7097167,
      "lon": -81.7328542
    },
    {
      "id": "astoria_or",
      "label": "Astoria, OR",
      "lat": 46.1882007,
      "lon": -123.8319802
    },
    {
      "id": "atascadero_ca",
      "label": "Atascadero, CA",
      "lat": 35.4894169,
      "lon": -120.6707255
    },
    {
      "id": "athens_al",
      "label": "Athens, AL",
      "lat": 34.8045487,
      "lon": -86.9711698
    },
    {
      "id": "athens_ga",
      "label": "Athens, GA",
      "lat": 33.9597677,
      "lon": -83.376398
    },
    {
      "id": "athens_tn",
      "label": "Athens, TN",
      "lat": 35.4428864,
      "lon": -84.5930113
    },
    {
      "id": "atlanta_ga",
      "label": "Atlanta, GA",
      "lat": 33.7544657,
      "lon": -84.3898151
    },
    {
      "id": "atlantic_beach_fl",
      "label": "Atlantic Beach, FL",
      "lat": 30.3344077,
      "lon": -81.398696
    },
    {
      "id": "atlantic_city_nj",
      "label": "Atlantic City, NJ",
      "lat": 39.3642852,
      "lon": -74.4229351
    },
    {
      "id": "atmore_al",
      "label": "Atmore, AL",
      "lat": 31.0237921,
      "lon": -87.4938708
    },
    {
      "id": "atoka_tn",
      "label": "Atoka, TN",
      "lat": 35.4411945,
      "lon": -89.7781379
    },
    {
      "id": "attleboro_ma",
      "label": "Attleboro, MA",
      "lat": 41.9439695,
      "lon": -71.2804301
    },
    {
      "id": "atwater_oh",
      "label": "Atwater, OH",
      "lat": 41.024134,
      "lon": -81.1648959
    },
    {
      "id": "auburn_hills_mi",
      "label": "Auburn Hills, MI",
      "lat": 42.6875323,
      "lon": -83.2341028
    },
    {
      "id": "auburn_al",
      "label": "Auburn, AL",
      "lat": 32.6098566,
      "lon": -85.4807825
    },
    {
      "id": "auburn_ca",
      "label": "Auburn, CA",
      "lat": 38.8945939,
      "lon": -121.0739897
    },
    {
      "id": "auburn_ga",
      "label": "Auburn, GA",
      "lat": 34.0136673,
      "lon": -83.8273406
    },
    {
      "id": "auburndale_fl",
      "label": "Auburndale, FL",
      "lat": 28.0653422,
      "lon": -81.7888642
    },
    {
      "id": "augusta_ga",
      "label": "Augusta, GA",
      "lat": 33.4709714,
      "lon": -81.9748429
    },
    {
      "id": "aurora_co",
      "label": "Aurora, CO",
      "lat": 39.7405111,
      "lon": -104.830994
    },
    {
      "id": "aurora_il",
      "label": "Aurora, IL",
      "lat": 41.7571701,
      "lon": -88.3147539
    },
    {
      "id": "aurora_in",
      "label": "Aurora, IN",
      "lat": 39.0570022,
      "lon": -84.9013402
    },
    {
      "id": "aurora_oh",
      "label": "Aurora, OH",
      "lat": 41.317555,
      "lon": -81.345386
    },
    {
      "id": "aurora_sd",
      "label": "Aurora, SD",
      "lat": 43.6963371,
      "lon": -98.5722461
    },
    {
      "id": "austell_ga",
      "label": "Austell, GA",
      "lat": 33.8126059,
      "lon": -84.6343783
    },
    {
      "id": "austin_tx",
      "label": "Austin, TX",
      "lat": 30.2711286,
      "lon": -97.7436995
    },
    {
      "id": "aventura_fl",
      "label": "Aventura, FL",
      "lat": 25.9564812,
      "lon": -80.1392121
    },
    {
      "id": "avon_ma",
      "label": "Avon, MA",
      "lat": 42.1326216,
      "lon": -71.0401255
    },
    {
      "id": "avondale_az",
      "label": "Avondale, AZ",
      "lat": 33.4355977,
      "lon": -112.349602
    },
    {
      "id": "axis_al",
      "label": "Axis, AL",
      "lat": 30.9309768,
      "lon": -88.018225
    },
    {
      "id": "aynor_sc",
      "label": "Aynor, SC",
      "lat": 33.9998881,
      "lon": -79.1994874
    },
    {
      "id": "baconton_ga",
      "label": "Baconton, GA",
      "lat": 31.3776288,
      "lon": -84.1610382
    },
    {
      "id": "baden_pa",
      "label": "Baden, PA",
      "lat": 40.6350668,
      "lon": -80.2281159
    },
    {
      "id": "bainbridge_ga",
      "label": "Bainbridge, GA",
      "lat": 30.9038252,
      "lon": -84.5754768
    },
    {
      "id": "baker_fl",
      "label": "Baker, FL",
      "lat": 30.3143459,
      "lon": -82.2847163
    },
    {
      "id": "bakersfield_ca",
      "label": "Bakersfield, CA",
      "lat": 35.3738712,
      "lon": -119.019463
    },
    {
      "id": "balch_springs_tx",
      "label": "Balch Springs, TX",
      "lat": 32.7287413,
      "lon": -96.6227714
    },
    {
      "id": "ball_ground_ga",
      "label": "Ball Ground, GA",
      "lat": 34.3382257,
      "lon": -84.3765714
    },
    {
      "id": "ballston_spa_ny",
      "label": "Ballston Spa, NY",
      "lat": 43.0100155,
      "lon": -73.8502957
    },
    {
      "id": "ballwin_mo",
      "label": "Ballwin, MO",
      "lat": 38.5961694,
      "lon": -90.5387318
    },
    {
      "id": "balt_md",
      "label": "Balt, MD",
      "lat": 47.3323523,
      "lon": 27.8776868
    },
    {
      "id": "banner_ky",
      "label": "Banner, KY",
      "lat": 37.5992651,
      "lon": -82.7012684
    },
    {
      "id": "barcelona_ct",
      "label": "Barcelona, CT",
      "lat": 41.3825802,
      "lon": 2.177073
    },
    {
      "id": "bardstown_ky",
      "label": "Bardstown, KY",
      "lat": 37.8092463,
      "lon": -85.4669015
    },
    {
      "id": "bardwell_ky",
      "label": "Bardwell, KY",
      "lat": 36.8706111,
      "lon": -89.0097869
    },
    {
      "id": "barksdale_air_force_base_la",
      "label": "Barksdale Air Force Base, LA",
      "lat": 32.497523,
      "lon": -93.6108428
    },
    {
      "id": "barnesville_ga",
      "label": "Barnesville, GA",
      "lat": 33.0545709,
      "lon": -84.1557496
    },
    {
      "id": "barnhart_mo",
      "label": "Barnhart, MO",
      "lat": 38.3397205,
      "lon": -90.4067425
    },
    {
      "id": "barnstable_ma",
      "label": "Barnstable, MA",
      "lat": 41.7016936,
      "lon": -70.3036163
    },
    {
      "id": "barrington_il",
      "label": "Barrington, IL",
      "lat": 42.1539141,
      "lon": -88.1361888
    },
    {
      "id": "bartlett_tn",
      "label": "Bartlett, TN",
      "lat": 35.2045329,
      "lon": -89.8739753
    },
    {
      "id": "bartow_fl",
      "label": "Bartow, FL",
      "lat": 27.8964384,
      "lon": -81.843323
    },
    {
      "id": "basalt_co",
      "label": "Basalt, CO",
      "lat": 39.3688731,
      "lon": -107.032824
    },
    {
      "id": "bassfield_ms",
      "label": "Bassfield, MS",
      "lat": 31.4965591,
      "lon": -89.7395195
    },
    {
      "id": "batavia_il",
      "label": "Batavia, IL",
      "lat": 41.8500284,
      "lon": -88.3125738
    },
    {
      "id": "batavia_oh",
      "label": "Batavia, OH",
      "lat": 39.0770072,
      "lon": -84.1768795
    },
    {
      "id": "batesburgleesville_sc",
      "label": "Batesburg-leesville, SC",
      "lat": 33.9101425,
      "lon": -81.5373261
    },
    {
      "id": "batesville_ar",
      "label": "Batesville, AR",
      "lat": 35.7708144,
      "lon": -91.6531128
    },
    {
      "id": "baton_rouge_la",
      "label": "Baton Rouge, LA",
      "lat": 30.4494155,
      "lon": -91.1869659
    },
    {
      "id": "battle_creek_mi",
      "label": "Battle Creek, MI",
      "lat": 42.3192548,
      "lon": -85.1824269
    },
    {
      "id": "bay_st_louis_ms",
      "label": "Bay St Louis, MS",
      "lat": 30.3105666,
      "lon": -89.3275482
    },
    {
      "id": "bayamon_pr",
      "label": "Bayamon, PR",
      "lat": 18.3449582,
      "lon": -66.168374
    },
    {
      "id": "bayport_ny",
      "label": "Bayport, NY",
      "lat": 40.74885,
      "lon": -73.052214
    },
    {
      "id": "baytown_tx",
      "label": "Baytown, TX",
      "lat": 29.7355047,
      "lon": -94.9774274
    },
    {
      "id": "bayville_nj",
      "label": "Bayville, NJ",
      "lat": 39.9092852,
      "lon": -74.1548614
    },
    {
      "id": "bean_station_tn",
      "label": "Bean Station, TN",
      "lat": 36.3436559,
      "lon": -83.2840492
    },
    {
      "id": "beaufort_nc",
      "label": "Beaufort, NC",
      "lat": 35.469331,
      "lon": -76.8927522
    },
    {
      "id": "beaufort_sc",
      "label": "Beaufort, SC",
      "lat": 32.3850708,
      "lon": -80.6923169
    },
    {
      "id": "beaumont_ca",
      "label": "Beaumont, CA",
      "lat": 53.3525496,
      "lon": -113.4151434
    },
    {
      "id": "beaumont_tx",
      "label": "Beaumont, TX",
      "lat": 30.0829344,
      "lon": -94.0984277
    },
    {
      "id": "beaver_dam_ky",
      "label": "Beaver Dam, KY",
      "lat": 37.4019918,
      "lon": -86.8758256
    },
    {
      "id": "beaver_falls_pa",
      "label": "Beaver Falls, PA",
      "lat": 40.7520097,
      "lon": -80.3192295
    },
    {
      "id": "bedford_tx",
      "label": "Bedford, TX",
      "lat": 32.844017,
      "lon": -97.1430671
    },
    {
      "id": "beebe_ar",
      "label": "Beebe, AR",
      "lat": 35.0735738,
      "lon": -91.8863516
    },
    {
      "id": "beech_island_sc",
      "label": "Beech Island, SC",
      "lat": 33.4280649,
      "lon": -81.8891583
    },
    {
      "id": "bel_air_md",
      "label": "Bel Air, MD",
      "lat": 39.5355063,
      "lon": -76.3490396
    },
    {
      "id": "belchertown_ma",
      "label": "Belchertown, MA",
      "lat": 42.2772732,
      "lon": -72.4007966
    },
    {
      "id": "belfry_ky",
      "label": "Belfry, KY",
      "lat": 37.6203804,
      "lon": -82.2690294
    },
    {
      "id": "bellbrook_oh",
      "label": "Bellbrook, OH",
      "lat": 39.6358399,
      "lon": -84.0701766
    },
    {
      "id": "belle_chasse_la",
      "label": "Belle Chasse, LA",
      "lat": 29.8549287,
      "lon": -89.9906253
    },
    {
      "id": "bellefonte_pa",
      "label": "Bellefonte, PA",
      "lat": 40.9134862,
      "lon": -77.7737471
    },
    {
      "id": "belleview_fl",
      "label": "Belleview, FL",
      "lat": 29.0625783,
      "lon": -82.0495108
    },
    {
      "id": "belleville_mi",
      "label": "Belleville, MI",
      "lat": 42.2048414,
      "lon": -83.4852106
    },
    {
      "id": "bellevue_pa",
      "label": "Bellevue, PA",
      "lat": 40.4959365,
      "lon": -80.0563537
    },
    {
      "id": "belmont_nc",
      "label": "Belmont, NC",
      "lat": 35.2438272,
      "lon": -81.0377322
    },
    {
      "id": "belton_mo",
      "label": "Belton, MO",
      "lat": 38.8108097,
      "lon": -94.5313502
    },
    {
      "id": "belton_sc",
      "label": "Belton, SC",
      "lat": 34.5228881,
      "lon": -82.4942948
    },
    {
      "id": "beltsville_md",
      "label": "Beltsville, MD",
      "lat": 39.0397735,
      "lon": -76.9271851
    },
    {
      "id": "belvidere_il",
      "label": "Belvidere, IL",
      "lat": 42.2579991,
      "lon": -88.841734
    },
    {
      "id": "bend_or",
      "label": "Bend, OR",
      "lat": 44.0581728,
      "lon": -121.3153096
    },
    {
      "id": "benton_ar",
      "label": "Benton, AR",
      "lat": 36.3456186,
      "lon": -94.2670404
    },
    {
      "id": "benton_ky",
      "label": "Benton, KY",
      "lat": 36.8572781,
      "lon": -88.350315
    },
    {
      "id": "benton_la",
      "label": "Benton, LA",
      "lat": 32.6978036,
      "lon": -93.7399258
    },
    {
      "id": "benton_pa",
      "label": "Benton, PA",
      "lat": 41.1950837,
      "lon": -76.3835528
    },
    {
      "id": "benton_wi",
      "label": "Benton, WI",
      "lat": 42.569382,
      "lon": -90.3809239
    },
    {
      "id": "berea_ky",
      "label": "Berea, KY",
      "lat": 37.568694,
      "lon": -84.2963224
    },
    {
      "id": "berkeley_lake_ga",
      "label": "Berkeley Lake, GA",
      "lat": 33.983712,
      "lon": -84.1865849
    },
    {
      "id": "berkeley_ca",
      "label": "Berkeley, CA",
      "lat": 37.8708393,
      "lon": -122.272863
    },
    {
      "id": "berkley_mi",
      "label": "Berkley, MI",
      "lat": 42.5030909,
      "lon": -83.1835389
    },
    {
      "id": "berlin_nh",
      "label": "Berlin, NH",
      "lat": 44.4696602,
      "lon": -71.1810703
    },
    {
      "id": "berthoud_co",
      "label": "Berthoud, CO",
      "lat": 40.3135085,
      "lon": -104.9700676
    },
    {
      "id": "bessemer_city_nc",
      "label": "Bessemer City, NC",
      "lat": 35.284733,
      "lon": -81.283906
    },
    {
      "id": "bessemer_al",
      "label": "Bessemer, AL",
      "lat": 33.4017766,
      "lon": -86.954437
    },
    {
      "id": "bethany_beach_de",
      "label": "Bethany Beach, DE",
      "lat": 38.5379676,
      "lon": -75.0588646
    },
    {
      "id": "bethel_oh",
      "label": "Bethel, OH",
      "lat": 38.9636771,
      "lon": -84.0807664
    },
    {
      "id": "bethesda_md",
      "label": "Bethesda, MD",
      "lat": 38.9812726,
      "lon": -77.1233587
    },
    {
      "id": "bethlehem_ga",
      "label": "Bethlehem, GA",
      "lat": 33.9328842,
      "lon": -83.7129958
    },
    {
      "id": "bethlehem_pa",
      "label": "Bethlehem, PA",
      "lat": -1.45056,
      "lon": -48.4682453
    },
    {
      "id": "beverly_hills_fl",
      "label": "Beverly Hills, FL",
      "lat": 28.9203666,
      "lon": -82.4636305
    },
    {
      "id": "big_creek_ky",
      "label": "Big Creek, KY",
      "lat": 37.1623123,
      "lon": -83.5688015
    },
    {
      "id": "big_pine_key_fl",
      "label": "Big Pine Key, FL",
      "lat": 24.6698652,
      "lon": -81.353969
    },
    {
      "id": "big_rock_il",
      "label": "Big Rock, IL",
      "lat": 41.7639181,
      "lon": -88.5470219
    },
    {
      "id": "big_sandy_tn",
      "label": "Big Sandy, TN",
      "lat": 36.2347791,
      "lon": -88.0853146
    },
    {
      "id": "bigelow_ar",
      "label": "Bigelow, AR",
      "lat": 35.0012336,
      "lon": -92.6295795
    },
    {
      "id": "biggs_ca",
      "label": "Biggs, CA",
      "lat": 39.4123876,
      "lon": -121.712751
    },
    {
      "id": "billings_mt",
      "label": "Billings, MT",
      "lat": 45.7874957,
      "lon": -108.49607
    },
    {
      "id": "billingsley_al",
      "label": "Billingsley, AL",
      "lat": 32.659575,
      "lon": -86.717761
    },
    {
      "id": "biloxi_ms",
      "label": "Biloxi, MS",
      "lat": 30.4007626,
      "lon": -88.8893818
    },
    {
      "id": "bingham_farms_mi",
      "label": "Bingham Farms, MI",
      "lat": 42.515868,
      "lon": -83.2732643
    },
    {
      "id": "birmingham_al",
      "label": "Birmingham, AL",
      "lat": 33.5206824,
      "lon": -86.8024326
    },
    {
      "id": "biscayne_park_fl",
      "label": "Biscayne Park, FL",
      "lat": 25.8825951,
      "lon": -80.1806025
    },
    {
      "id": "bismarck_nd",
      "label": "Bismarck, ND",
      "lat": 46.808327,
      "lon": -100.783739
    },
    {
      "id": "blacksburg_va",
      "label": "Blacksburg, VA",
      "lat": 37.2296566,
      "lon": -80.4136767
    },
    {
      "id": "blackshear_ga",
      "label": "Blackshear, GA",
      "lat": 31.3042798,
      "lon": -82.2404922
    },
    {
      "id": "blackville_sc",
      "label": "Blackville, SC",
      "lat": 33.3551173,
      "lon": -81.2707218
    },
    {
      "id": "blackwood_nj",
      "label": "Blackwood, NJ",
      "lat": 39.799232,
      "lon": -75.0641699
    },
    {
      "id": "blaine_tn",
      "label": "Blaine, TN",
      "lat": 36.1542508,
      "lon": -83.7040704
    },
    {
      "id": "blaine_wa",
      "label": "Blaine, WA",
      "lat": 48.9881108,
      "lon": -122.743575
    },
    {
      "id": "blainville_qc",
      "label": "Blainville, QC",
      "lat": 45.67932,
      "lon": -73.87619
    },
    {
      "id": "blairsville_ga",
      "label": "Blairsville, GA",
      "lat": 34.8759067,
      "lon": -83.958371
    },
    {
      "id": "blakely_ga",
      "label": "Blakely, GA",
      "lat": 31.3773475,
      "lon": -84.9343388
    },
    {
      "id": "bloomfield_hills_mi",
      "label": "Bloomfield Hills, MI",
      "lat": 42.583645,
      "lon": -83.2454883
    },
    {
      "id": "bloomington_il",
      "label": "Bloomington, IL",
      "lat": 40.4797828,
      "lon": -88.9939147
    },
    {
      "id": "bloomington_in",
      "label": "Bloomington, IN",
      "lat": 39.1670396,
      "lon": -86.5342881
    },
    {
      "id": "bloomington_mn",
      "label": "Bloomington, MN",
      "lat": 44.8322405,
      "lon": -93.3204872
    },
    {
      "id": "blountstown_fl",
      "label": "Blountstown, FL",
      "lat": 30.4435293,
      "lon": -85.0451953
    },
    {
      "id": "bluff_city_tn",
      "label": "Bluff City, TN",
      "lat": 36.4742705,
      "lon": -82.2609685
    },
    {
      "id": "bluffton_sc",
      "label": "Bluffton, SC",
      "lat": 32.2371465,
      "lon": -80.8603868
    },
    {
      "id": "blytheville_ar",
      "label": "Blytheville, AR",
      "lat": 35.9283249,
      "lon": -89.9045612
    },
    {
      "id": "boaz_al",
      "label": "Boaz, AL",
      "lat": 34.1983281,
      "lon": -86.1649421
    },
    {
      "id": "boca_raton_fl",
      "label": "Boca Raton, FL",
      "lat": 26.3586885,
      "lon": -80.0830984
    },
    {
      "id": "bogart_ga",
      "label": "Bogart, GA",
      "lat": 33.949281,
      "lon": -83.534608
    },
    {
      "id": "boise_id",
      "label": "Boise, ID",
      "lat": 43.6166163,
      "lon": -116.200886
    },
    {
      "id": "boise_idaho",
      "label": "Boise, IDAHO",
      "lat": 43.6166163,
      "lon": -116.200886
    },
    {
      "id": "bolingbrook_il",
      "label": "Bolingbrook, IL",
      "lat": 41.7003302,
      "lon": -88.0717708
    },
    {
      "id": "bolivia_nc",
      "label": "Bolivia, NC",
      "lat": 34.0676715,
      "lon": -78.1483283
    },
    {
      "id": "bolton_ma",
      "label": "Bolton, MA",
      "lat": 42.4342336,
      "lon": -71.6097744
    },
    {
      "id": "bondurant_ia",
      "label": "Bondurant, IA",
      "lat": 41.7005441,
      "lon": -93.462157
    },
    {
      "id": "bonifay_fl",
      "label": "Bonifay, FL",
      "lat": 30.7918559,
      "lon": -85.6796533
    },
    {
      "id": "bonne_terre_mo",
      "label": "Bonne Terre, MO",
      "lat": 37.9247678,
      "lon": -90.5510587
    },
    {
      "id": "boomer_nc",
      "label": "Boomer, NC",
      "lat": 36.0673532,
      "lon": -81.2536987
    },
    {
      "id": "boone_nc",
      "label": "Boone, NC",
      "lat": 36.2187873,
      "lon": -81.684004
    },
    {
      "id": "bossier_city_la",
      "label": "Bossier City, LA",
      "lat": 32.515887,
      "lon": -93.7336536
    },
    {
      "id": "bothell_wa",
      "label": "Bothell, WA",
      "lat": 47.7623204,
      "lon": -122.2054035
    },
    {
      "id": "boulder_co",
      "label": "Boulder, CO",
      "lat": 40.0149856,
      "lon": -105.270545
    },
    {
      "id": "bound_brook_nj",
      "label": "Bound Brook, NJ",
      "lat": 40.5684363,
      "lon": -74.5384889
    },
    {
      "id": "bourbonnais_il",
      "label": "Bourbonnais, IL",
      "lat": 41.1639309,
      "lon": -87.8839693
    },
    {
      "id": "bourg_la",
      "label": "Bourg, LA",
      "lat": 29.5535491,
      "lon": -90.6023096
    },
    {
      "id": "bow_nh",
      "label": "Bow, NH",
      "lat": 43.133061,
      "lon": -71.549149
    },
    {
      "id": "bowdon_ga",
      "label": "Bowdon, GA",
      "lat": 33.5378885,
      "lon": -85.2532818
    },
    {
      "id": "bowling_green_ky",
      "label": "Bowling Green, KY",
      "lat": 36.9929203,
      "lon": -86.4428677
    },
    {
      "id": "boynton_beach_fl",
      "label": "Boynton Beach, FL",
      "lat": 26.5289139,
      "lon": -80.058141
    },
    {
      "id": "bradenton_fl",
      "label": "Bradenton, FL",
      "lat": 27.4989278,
      "lon": -82.5748194
    },
    {
      "id": "brainerd_mn",
      "label": "Brainerd, MN",
      "lat": 46.3580221,
      "lon": -94.2008288
    },
    {
      "id": "braintree_ma",
      "label": "Braintree, MA",
      "lat": 42.2205956,
      "lon": -71.0041229
    },
    {
      "id": "brampton_on",
      "label": "Brampton, ON",
      "lat": 43.685832,
      "lon": -79.7599366
    },
    {
      "id": "brandenburg_ky",
      "label": "Brandenburg, KY",
      "lat": 37.9989592,
      "lon": -86.1694143
    },
    {
      "id": "brandon_fl",
      "label": "Brandon, FL",
      "lat": 27.937801,
      "lon": -82.2859247
    },
    {
      "id": "brandon_ms",
      "label": "Brandon, MS",
      "lat": 32.2731475,
      "lon": -89.9868058
    },
    {
      "id": "brandywine_md",
      "label": "Brandywine, MD",
      "lat": 38.6934548,
      "lon": -76.8843081
    },
    {
      "id": "braselton_ga",
      "label": "Braselton, GA",
      "lat": 34.1092735,
      "lon": -83.7626729
    },
    {
      "id": "brecksville_oh",
      "label": "Brecksville, OH",
      "lat": 41.3197763,
      "lon": -81.6267904
    },
    {
      "id": "bremen_ga",
      "label": "Bremen, GA",
      "lat": 33.7208676,
      "lon": -85.1456929
    },
    {
      "id": "brentwood_ca",
      "label": "Brentwood, CA",
      "lat": 37.9317766,
      "lon": -121.696026
    },
    {
      "id": "brentwood_tn",
      "label": "Brentwood, TN",
      "lat": 36.0325687,
      "lon": -86.7825235
    },
    {
      "id": "brevard_nc",
      "label": "Brevard, NC",
      "lat": 35.2334472,
      "lon": -82.7342919
    },
    {
      "id": "brick_township_nj",
      "label": "Brick Township, NJ",
      "lat": 40.0707244,
      "lon": -74.1280562
    },
    {
      "id": "brick_nj",
      "label": "Brick, NJ",
      "lat": 40.0707244,
      "lon": -74.1280562
    },
    {
      "id": "bridgewater_township_nj",
      "label": "Bridgewater Township, NJ",
      "lat": 40.5931225,
      "lon": -74.604954
    },
    {
      "id": "bridgewater_ct",
      "label": "Bridgewater, CT",
      "lat": 41.5350949,
      "lon": -73.3662305
    },
    {
      "id": "brighton_co",
      "label": "Brighton, CO",
      "lat": 39.983721,
      "lon": -104.8110775
    },
    {
      "id": "brisbane_qld",
      "label": "Brisbane, QLD",
      "lat": -27.4689623,
      "lon": 153.0235009
    },
    {
      "id": "bristol_ct",
      "label": "Bristol, CT",
      "lat": 41.6735209,
      "lon": -72.9464859
    },
    {
      "id": "bristol_fl",
      "label": "Bristol, FL",
      "lat": 30.4321947,
      "lon": -84.9765067
    },
    {
      "id": "bristol_pa",
      "label": "Bristol, PA",
      "lat": 40.1229002,
      "lon": -74.8644706
    },
    {
      "id": "bristol_tn",
      "label": "Bristol, TN",
      "lat": 36.5945034,
      "lon": -82.1885212
    },
    {
      "id": "bristol_va",
      "label": "Bristol, VA",
      "lat": 36.5959685,
      "lon": -82.1885009
    },
    {
      "id": "bristow_va",
      "label": "Bristow, VA",
      "lat": 38.7233263,
      "lon": -77.5365669
    },
    {
      "id": "broadway_va",
      "label": "Broadway, VA",
      "lat": 38.6133035,
      "lon": -78.7993257
    },
    {
      "id": "broken_arrow_ok",
      "label": "Broken Arrow, OK",
      "lat": 36.0525993,
      "lon": -95.7908195
    },
    {
      "id": "broken_bow_ok",
      "label": "Broken Bow, OK",
      "lat": 34.0298629,
      "lon": -94.7389659
    },
    {
      "id": "bronston_ky",
      "label": "Bronston, KY",
      "lat": 36.9856324,
      "lon": -84.6229965
    },
    {
      "id": "brookfield_wi",
      "label": "Brookfield, WI",
      "lat": 43.0615578,
      "lon": -88.1260678
    },
    {
      "id": "brookhaven_ga",
      "label": "Brookhaven, GA",
      "lat": 33.8584368,
      "lon": -84.340203
    },
    {
      "id": "brookhaven_ms",
      "label": "Brookhaven, MS",
      "lat": 31.5790667,
      "lon": -90.4407122
    },
    {
      "id": "brookings_sd",
      "label": "Brookings, SD",
      "lat": 44.311461,
      "lon": -96.79844
    },
    {
      "id": "brooklyn_mi",
      "label": "Brooklyn, MI",
      "lat": 42.105874,
      "lon": -84.2482819
    },
    {
      "id": "brooklyn_ny",
      "label": "Brooklyn, NY",
      "lat": 40.6526006,
      "lon": -73.9497211
    },
    {
      "id": "brooklyn_oh",
      "label": "Brooklyn, OH",
      "lat": 41.439754,
      "lon": -81.7405559
    },
    {
      "id": "brooks_ga",
      "label": "Brooks, GA",
      "lat": 30.8336559,
      "lon": -83.5958387
    },
    {
      "id": "brooksville_fl",
      "label": "Brooksville, FL",
      "lat": 28.5552719,
      "lon": -82.3878709
    },
    {
      "id": "broussard_la",
      "label": "Broussard, LA",
      "lat": 30.1471506,
      "lon": -91.9612413
    },
    {
      "id": "brownwood_tx",
      "label": "Brownwood, TX",
      "lat": 31.7208509,
      "lon": -98.9818701
    },
    {
      "id": "broxton_ga",
      "label": "Broxton, GA",
      "lat": 31.6253346,
      "lon": -82.8866264
    },
    {
      "id": "brunswick_ga",
      "label": "Brunswick, GA",
      "lat": 31.1499528,
      "lon": -81.4914894
    },
    {
      "id": "brusly_la",
      "label": "Brusly, LA",
      "lat": 30.3943588,
      "lon": -91.2537199
    },
    {
      "id": "bryn_athyn_pa",
      "label": "Bryn Athyn, PA",
      "lat": 40.1314988,
      "lon": -75.0673938
    },
    {
      "id": "buckley_wa",
      "label": "Buckley, WA",
      "lat": 47.1622483,
      "lon": -122.027746
    },
    {
      "id": "buckner_ky",
      "label": "Buckner, KY",
      "lat": 38.3928715,
      "lon": -85.440105
    },
    {
      "id": "bucks_county_pa",
      "label": "Bucks County, PA",
      "lat": 40.3451668,
      "lon": -75.1263909
    },
    {
      "id": "bucyrus_oh",
      "label": "Bucyrus, OH",
      "lat": 40.8083909,
      "lon": -82.9754649
    },
    {
      "id": "buffalo_ky",
      "label": "Buffalo, KY",
      "lat": 37.5120048,
      "lon": -85.6985728
    },
    {
      "id": "buffalo_mn",
      "label": "Buffalo, MN",
      "lat": 45.1719084,
      "lon": -93.8746941
    },
    {
      "id": "buffalo_ny",
      "label": "Buffalo, NY",
      "lat": 42.8864163,
      "lon": -78.8781493
    },
    {
      "id": "buford_ga",
      "label": "Buford, GA",
      "lat": 34.1206564,
      "lon": -84.0043513
    },
    {
      "id": "buhl_al",
      "label": "Buhl, AL",
      "lat": 33.2570623,
      "lon": -87.7527902
    },
    {
      "id": "bulls_gap_tn",
      "label": "Bulls Gap, TN",
      "lat": 36.2535742,
      "lon": -83.086061
    },
    {
      "id": "burlingame_ca",
      "label": "Burlingame, CA",
      "lat": 37.5780965,
      "lon": -122.3473099
    },
    {
      "id": "burlington_nc",
      "label": "Burlington, NC",
      "lat": 36.0956918,
      "lon": -79.4377991
    },
    {
      "id": "burlington_vt",
      "label": "Burlington, VT",
      "lat": 44.4761601,
      "lon": -73.212906
    },
    {
      "id": "burlison_tn",
      "label": "Burlison, TN",
      "lat": 35.5569461,
      "lon": -89.778357
    },
    {
      "id": "burns_tn",
      "label": "Burns, TN",
      "lat": 36.0533943,
      "lon": -87.3125104
    },
    {
      "id": "burnsville_mn",
      "label": "Burnsville, MN",
      "lat": 44.7670567,
      "lon": -93.2773887
    },
    {
      "id": "burton_mi",
      "label": "Burton, MI",
      "lat": 42.9897333,
      "lon": -83.6335032
    },
    {
      "id": "buxton_me",
      "label": "Buxton, ME",
      "lat": 43.612404,
      "lon": -70.540878
    },
    {
      "id": "buzzards_bay_ma",
      "label": "Buzzards Bay, MA",
      "lat": 41.7452589,
      "lon": -70.6154965
    },
    {
      "id": "byram_ms",
      "label": "Byram, MS",
      "lat": 32.184469,
      "lon": -90.2764625
    },
    {
      "id": "byron_center_mi",
      "label": "Byron Center, MI",
      "lat": 42.8143115,
      "lon": -85.7279047
    },
    {
      "id": "cairo_ga",
      "label": "Cairo, GA",
      "lat": 30.8773326,
      "lon": -84.2079425
    },
    {
      "id": "caledonia_ms",
      "label": "Caledonia, MS",
      "lat": 33.6828918,
      "lon": -88.3244812
    },
    {
      "id": "calera_al",
      "label": "Calera, AL",
      "lat": 33.1035045,
      "lon": -86.7505733
    },
    {
      "id": "calgary_ab",
      "label": "Calgary, AB",
      "lat": 51.0456064,
      "lon": -114.057541
    },
    {
      "id": "calhoun_ga",
      "label": "Calhoun, GA",
      "lat": 31.5311784,
      "lon": -84.614328
    },
    {
      "id": "calico_rock_ar",
      "label": "Calico Rock, AR",
      "lat": 36.1195143,
      "lon": -92.1359867
    },
    {
      "id": "california_ca",
      "label": "California, CA",
      "lat": 37.8754996,
      "lon": -122.2390685
    },
    {
      "id": "callahan_fl",
      "label": "Callahan, FL",
      "lat": 30.5637205,
      "lon": -81.8297744
    },
    {
      "id": "calvert_city_ky",
      "label": "Calvert City, KY",
      "lat": 37.0333896,
      "lon": -88.3500362
    },
    {
      "id": "camanche_ia",
      "label": "Camanche, IA",
      "lat": 41.7880862,
      "lon": -90.2562398
    },
    {
      "id": "camarillo_ca",
      "label": "Camarillo, CA",
      "lat": 34.2176371,
      "lon": -119.0383541
    },
    {
      "id": "cambridge_on",
      "label": "Cambridge, ON",
      "lat": 43.3600536,
      "lon": -80.3123023
    },
    {
      "id": "camby_in",
      "label": "Camby, IN",
      "lat": 39.661472,
      "lon": -86.3120233
    },
    {
      "id": "camden_sc",
      "label": "Camden, SC",
      "lat": 34.2464886,
      "lon": -80.6070391
    },
    {
      "id": "camden_tn",
      "label": "Camden, TN",
      "lat": 36.0589486,
      "lon": -88.0978151
    },
    {
      "id": "cameron_park_ca",
      "label": "Cameron Park, CA",
      "lat": 38.6781746,
      "lon": -120.99426
    },
    {
      "id": "cameron_nc",
      "label": "Cameron, NC",
      "lat": 35.3268226,
      "lon": -79.255303
    },
    {
      "id": "camilla_ga",
      "label": "Camilla, GA",
      "lat": 31.2312887,
      "lon": -84.2103726
    },
    {
      "id": "campobello_sc",
      "label": "Campobello, SC",
      "lat": 35.1158728,
      "lon": -82.149935
    },
    {
      "id": "canal_winchester_oh",
      "label": "Canal Winchester, OH",
      "lat": 39.8428215,
      "lon": -82.805646
    },
    {
      "id": "candler_nc",
      "label": "Candler, NC",
      "lat": 35.5444359,
      "lon": -82.6838032
    },
    {
      "id": "caneyville_ky",
      "label": "Caneyville, KY",
      "lat": 37.4242184,
      "lon": -86.4883148
    },
    {
      "id": "canfield_oh",
      "label": "Canfield, OH",
      "lat": 41.025059,
      "lon": -80.760912
    },
    {
      "id": "canisteo_ny",
      "label": "Canisteo, NY",
      "lat": 42.2703487,
      "lon": -77.6058225
    },
    {
      "id": "canton_ga",
      "label": "Canton, GA",
      "lat": 34.2367621,
      "lon": -84.4907621
    },
    {
      "id": "canton_mi",
      "label": "Canton, MI",
      "lat": 32.612602,
      "lon": -90.0367512
    },
    {
      "id": "canton_nc",
      "label": "Canton, NC",
      "lat": 35.5328838,
      "lon": -82.8373558
    },
    {
      "id": "canton_oh",
      "label": "Canton, OH",
      "lat": 40.7985464,
      "lon": -81.3749508
    },
    {
      "id": "cantonment_fl",
      "label": "Cantonment, FL",
      "lat": 30.605427,
      "lon": -87.344442
    },
    {
      "id": "canyon_country_ca",
      "label": "Canyon Country, CA",
      "lat": 34.4233293,
      "lon": -118.4720281
    },
    {
      "id": "capacadie_nb",
      "label": "Cap-acadie, NB",
      "lat": 46.203449,
      "lon": -64.2635829
    },
    {
      "id": "cape_coral_fl",
      "label": "Cape Coral, FL",
      "lat": 26.5625742,
      "lon": -81.9438802
    },
    {
      "id": "capitola_ca",
      "label": "Capitola, CA",
      "lat": 36.9762927,
      "lon": -121.954057
    },
    {
      "id": "carbondale_il",
      "label": "Carbondale, IL",
      "lat": 37.7274692,
      "lon": -89.216655
    },
    {
      "id": "carlton_or",
      "label": "Carlton, OR",
      "lat": 45.2942822,
      "lon": -123.176494
    },
    {
      "id": "carmen_ok",
      "label": "Carmen, OK",
      "lat": 36.5789213,
      "lon": -98.4622996
    },
    {
      "id": "carmichael_ca",
      "label": "Carmichael, CA",
      "lat": 38.6270985,
      "lon": -121.3222422
    },
    {
      "id": "carneys_point_township_nj",
      "label": "Carneys Point Township, NJ",
      "lat": 39.7112247,
      "lon": -75.4701961
    },
    {
      "id": "caro_mi",
      "label": "Caro, MI",
      "lat": 43.491132,
      "lon": -83.396897
    },
    {
      "id": "carpentersville_il",
      "label": "Carpentersville, IL",
      "lat": 42.1211364,
      "lon": -88.2578582
    },
    {
      "id": "carriere_ms",
      "label": "Carriere, MS",
      "lat": 30.6168569,
      "lon": -89.6525648
    },
    {
      "id": "carrollton_al",
      "label": "Carrollton, AL",
      "lat": 33.2617871,
      "lon": -88.0950263
    },
    {
      "id": "carrollton_ga",
      "label": "Carrollton, GA",
      "lat": 33.5801103,
      "lon": -85.0766113
    },
    {
      "id": "carrsville_va",
      "label": "Carrsville, VA",
      "lat": 36.708386,
      "lon": -76.8334159
    },
    {
      "id": "cartersville_ga",
      "label": "Cartersville, GA",
      "lat": 34.1652304,
      "lon": -84.7997613
    },
    {
      "id": "carthage_nc",
      "label": "Carthage, NC",
      "lat": 35.345802,
      "lon": -79.4170543
    },
    {
      "id": "carthage_tx",
      "label": "Carthage, TX",
      "lat": 32.1570412,
      "lon": -94.338114
    },
    {
      "id": "cary_nc",
      "label": "Cary, NC",
      "lat": 35.7882893,
      "lon": -78.7812081
    },
    {
      "id": "casselberry_fl",
      "label": "Casselberry, FL",
      "lat": 28.6714702,
      "lon": -81.3382005
    },
    {
      "id": "castlewood_va",
      "label": "Castlewood, VA",
      "lat": 36.8786855,
      "lon": -82.2803235
    },
    {
      "id": "cathedral_city_ca",
      "label": "Cathedral City, CA",
      "lat": 33.7810031,
      "lon": -116.464076
    },
    {
      "id": "cave_city_ar",
      "label": "Cave City, AR",
      "lat": 35.9401748,
      "lon": -91.5480777
    },
    {
      "id": "cave_creek_az",
      "label": "Cave Creek, AZ",
      "lat": 33.8333333,
      "lon": -111.950833
    },
    {
      "id": "cedar_bluff_al",
      "label": "Cedar Bluff, AL",
      "lat": 34.2200942,
      "lon": -85.6077402
    },
    {
      "id": "cedar_hill_mo",
      "label": "Cedar Hill, MO",
      "lat": 38.357791,
      "lon": -90.6314344
    },
    {
      "id": "cedar_hill_tn",
      "label": "Cedar Hill, TN",
      "lat": 36.5514333,
      "lon": -86.9991662
    },
    {
      "id": "cedar_key_fl",
      "label": "Cedar Key, FL",
      "lat": 29.1377209,
      "lon": -83.0359638
    },
    {
      "id": "cedar_mountain_nc",
      "label": "Cedar Mountain, NC",
      "lat": 35.2320593,
      "lon": -82.3256723
    },
    {
      "id": "cedar_rapids_ia",
      "label": "Cedar Rapids, IA",
      "lat": 41.9758872,
      "lon": -91.6704053
    },
    {
      "id": "cedartown_ga",
      "label": "Cedartown, GA",
      "lat": 34.0124425,
      "lon": -85.2559398
    },
    {
      "id": "ceilndia_df",
      "label": "Ceil√¢ndia, DF",
      "lat": -15.8173391,
      "lon": -48.1045766
    },
    {
      "id": "centennial_co",
      "label": "Centennial, CO",
      "lat": 39.579155,
      "lon": -104.8769227
    },
    {
      "id": "center_tx",
      "label": "Center, TX",
      "lat": 31.7952814,
      "lon": -94.1803576
    },
    {
      "id": "centereach_ny",
      "label": "Centereach, NY",
      "lat": 40.867749,
      "lon": -73.0839793
    },
    {
      "id": "centerville_oh",
      "label": "Centerville, OH",
      "lat": 39.6283928,
      "lon": -84.1593818
    },
    {
      "id": "central_city_ky",
      "label": "Central City, KY",
      "lat": 37.2939322,
      "lon": -87.1233292
    },
    {
      "id": "central_ct",
      "label": "Central, CT",
      "lat": 41.0742663,
      "lon": 1.1179261
    },
    {
      "id": "centre_al",
      "label": "Centre, AL",
      "lat": 34.1520406,
      "lon": -85.6788531
    },
    {
      "id": "chalmette_la",
      "label": "Chalmette, LA",
      "lat": 29.944196,
      "lon": -89.9644624
    },
    {
      "id": "chandler_az",
      "label": "Chandler, AZ",
      "lat": 33.3062031,
      "lon": -111.841185
    },
    {
      "id": "chapel_hill_tn",
      "label": "Chapel Hill, TN",
      "lat": 35.6264581,
      "lon": -86.6933305
    },
    {
      "id": "chapin_sc",
      "label": "Chapin, SC",
      "lat": 34.1659795,
      "lon": -81.3498212
    },
    {
      "id": "charles_town_wv",
      "label": "Charles Town, WV",
      "lat": 39.2891836,
      "lon": -77.859581
    },
    {
      "id": "charleston_sc",
      "label": "Charleston, SC",
      "lat": 32.7884363,
      "lon": -79.9399309
    },
    {
      "id": "charleston_wv",
      "label": "Charleston, WV",
      "lat": 38.3505995,
      "lon": -81.6332812
    },
    {
      "id": "charleston_wv",
      "label": "Charleston, WV",
      "lat": 38.3505995,
      "lon": -81.6332812
    },
    {
      "id": "charlestown_in",
      "label": "Charlestown, IN",
      "lat": 38.442857,
      "lon": -85.6620314
    },
    {
      "id": "charlotte_hall_md",
      "label": "Charlotte Hall, MD",
      "lat": 38.4773235,
      "lon": -76.7848553
    },
    {
      "id": "charlotte_nc",
      "label": "Charlotte, NC",
      "lat": 35.2272086,
      "lon": -80.8430827
    },
    {
      "id": "charlottesville_va",
      "label": "Charlottesville, VA",
      "lat": 38.029306,
      "lon": -78.4766781
    },
    {
      "id": "chase_mills_ny",
      "label": "Chase Mills, NY",
      "lat": 44.8489423,
      "lon": -75.0807625
    },
    {
      "id": "chathamkent_on",
      "label": "Chatham-kent, ON",
      "lat": 42.41833,
      "lon": -82.0898417
    },
    {
      "id": "chatsworth_ga",
      "label": "Chatsworth, GA",
      "lat": 34.7665942,
      "lon": -84.7698842
    },
    {
      "id": "chattanooga_tn",
      "label": "Chattanooga, TN",
      "lat": 35.0457219,
      "lon": -85.3094883
    },
    {
      "id": "chelsea_mi",
      "label": "Chelsea, MI",
      "lat": 42.3180163,
      "lon": -84.020224
    },
    {
      "id": "cheraw_sc",
      "label": "Cheraw, SC",
      "lat": 34.6976564,
      "lon": -79.8833971
    },
    {
      "id": "cherry_valley_ar",
      "label": "Cherry Valley, AR",
      "lat": 35.4020287,
      "lon": -90.7531682
    },
    {
      "id": "cherryville_nc",
      "label": "Cherryville, NC",
      "lat": 35.3787442,
      "lon": -81.3789739
    },
    {
      "id": "chesapeake_va",
      "label": "Chesapeake, VA",
      "lat": 36.7168315,
      "lon": -76.2494453
    },
    {
      "id": "chesnee_sc",
      "label": "Chesnee, SC",
      "lat": 35.1484549,
      "lon": -81.8609371
    },
    {
      "id": "chesterfield_township_nj",
      "label": "Chesterfield Township, NJ",
      "lat": 40.1153966,
      "lon": -74.6412727
    },
    {
      "id": "chesterfield_twp_mi",
      "label": "Chesterfield Twp, MI",
      "lat": 42.6749681,
      "lon": -82.7973252
    },
    {
      "id": "chesterfield_mo",
      "label": "Chesterfield, MO",
      "lat": 38.6581764,
      "lon": -90.5680617
    },
    {
      "id": "chesterfield_nj",
      "label": "Chesterfield, NJ",
      "lat": 40.1153966,
      "lon": -74.6412727
    },
    {
      "id": "cheyenne_wy",
      "label": "Cheyenne, WY",
      "lat": 41.139981,
      "lon": -104.820246
    },
    {
      "id": "chicago_il",
      "label": "Chicago, IL",
      "lat": 41.8755616,
      "lon": -87.6244212
    },
    {
      "id": "chickamauga_ga",
      "label": "Chickamauga, GA",
      "lat": 34.8711497,
      "lon": -85.2902472
    },
    {
      "id": "chickasaw_al",
      "label": "Chickasaw, AL",
      "lat": 30.7637991,
      "lon": -88.0747222
    },
    {
      "id": "chiefland_fl",
      "label": "Chiefland, FL",
      "lat": 29.4749586,
      "lon": -82.8591997
    },
    {
      "id": "chillicothe_ohio",
      "label": "Chillicothe, OHIO",
      "lat": 39.3331197,
      "lon": -82.9824019
    },
    {
      "id": "china_grove_nc",
      "label": "China Grove, NC",
      "lat": 35.569306,
      "lon": -80.5817318
    },
    {
      "id": "chipley_fl",
      "label": "Chipley, FL",
      "lat": 30.7818584,
      "lon": -85.538541
    },
    {
      "id": "chippewa_pa",
      "label": "Chippewa, PA",
      "lat": 41.2378588,
      "lon": -76.7769033
    },
    {
      "id": "chowchilla_ca",
      "label": "Chowchilla, CA",
      "lat": 37.1229997,
      "lon": -120.2601754
    },
    {
      "id": "christiana_tn",
      "label": "Christiana, TN",
      "lat": 35.7100099,
      "lon": -86.3993653
    },
    {
      "id": "chuckey_tn",
      "label": "Chuckey, TN",
      "lat": 36.2159371,
      "lon": -82.6882068
    },
    {
      "id": "chula_vista_ca",
      "label": "Chula Vista, CA",
      "lat": 32.6400541,
      "lon": -117.084195
    },
    {
      "id": "chula_vista_california",
      "label": "Chula Vista, CALIFORNIA",
      "lat": 32.6400541,
      "lon": -117.084195
    },
    {
      "id": "church_hill_tn",
      "label": "Church Hill, TN",
      "lat": 36.5223207,
      "lon": -82.7134921
    },
    {
      "id": "church_point_la",
      "label": "Church Point, LA",
      "lat": 30.4031037,
      "lon": -92.2148413
    },
    {
      "id": "cincinnati_oh",
      "label": "Cincinnati, OH",
      "lat": 39.1014537,
      "lon": -84.5124602
    },
    {
      "id": "circle_pines_mn",
      "label": "Circle Pines, MN",
      "lat": 45.144882,
      "lon": -93.1553635
    },
    {
      "id": "cisco_ga",
      "label": "Cisco, GA",
      "lat": 34.9511887,
      "lon": -84.7363272
    },
    {
      "id": "citra_fl",
      "label": "Citra, FL",
      "lat": 29.4119166,
      "lon": -82.1098156
    },
    {
      "id": "clanton_al",
      "label": "Clanton, AL",
      "lat": 32.8392013,
      "lon": -86.6309229
    },
    {
      "id": "claremore_oklahoma",
      "label": "Claremore, OKLAHOMA",
      "lat": 36.3126005,
      "lon": -95.6160686
    },
    {
      "id": "clark_mo",
      "label": "Clark, MO",
      "lat": 40.3962004,
      "lon": -91.7362195
    },
    {
      "id": "clarkesville_ga",
      "label": "Clarkesville, GA",
      "lat": 34.6125971,
      "lon": -83.5248933
    },
    {
      "id": "clarksburg_md",
      "label": "Clarksburg, MD",
      "lat": 39.2195565,
      "lon": -77.2678413
    },
    {
      "id": "clarksdale_ms",
      "label": "Clarksdale, MS",
      "lat": 34.2006479,
      "lon": -90.5702071
    },
    {
      "id": "clarkson_ky",
      "label": "Clarkson, KY",
      "lat": 37.4953332,
      "lon": -86.2213614
    },
    {
      "id": "clarkston_wa",
      "label": "Clarkston, WA",
      "lat": 46.4162724,
      "lon": -117.045179
    },
    {
      "id": "clarksville_fl",
      "label": "Clarksville, FL",
      "lat": 30.1210759,
      "lon": -81.4842512
    },
    {
      "id": "clarksville_in",
      "label": "Clarksville, IN",
      "lat": 38.2967791,
      "lon": -85.7602087
    },
    {
      "id": "clarksville_tn",
      "label": "Clarksville, TN",
      "lat": 36.5277607,
      "lon": -87.3588703
    },
    {
      "id": "clayton_ga",
      "label": "Clayton, GA",
      "lat": 33.5204959,
      "lon": -84.3591713
    },
    {
      "id": "clayton_in",
      "label": "Clayton, IN",
      "lat": 39.6892129,
      "lon": -86.5224984
    },
    {
      "id": "clayton_oh",
      "label": "Clayton, OH",
      "lat": 39.8631101,
      "lon": -84.3605022
    },
    {
      "id": "clearfield_pa",
      "label": "Clearfield, PA",
      "lat": 40.9908706,
      "lon": -78.4457422
    },
    {
      "id": "clearwater_beach_fl",
      "label": "Clearwater Beach, FL",
      "lat": 27.9774736,
      "lon": -82.8279313
    },
    {
      "id": "clearwater_fl",
      "label": "Clearwater, FL",
      "lat": 27.9658533,
      "lon": -82.8001026
    },
    {
      "id": "clemmons_nc",
      "label": "Clemmons, NC",
      "lat": 36.0215258,
      "lon": -80.3819984
    },
    {
      "id": "clermont_fl",
      "label": "Clermont, FL",
      "lat": 28.5551912,
      "lon": -81.7669488
    },
    {
      "id": "cleveland_ga",
      "label": "Cleveland, GA",
      "lat": 34.5972449,
      "lon": -83.7633058
    },
    {
      "id": "cleveland_oh",
      "label": "Cleveland, OH",
      "lat": 41.4996574,
      "lon": -81.6936772
    },
    {
      "id": "cleveland_tn",
      "label": "Cleveland, TN",
      "lat": 35.1595182,
      "lon": -84.8766115
    },
    {
      "id": "cleveland_tx",
      "label": "Cleveland, TX",
      "lat": 30.3414794,
      "lon": -95.0900115
    },
    {
      "id": "clewiston_fl",
      "label": "Clewiston, FL",
      "lat": 26.7542264,
      "lon": -80.9342307
    },
    {
      "id": "climax_nc",
      "label": "Climax, NC",
      "lat": 35.9129138,
      "lon": -79.7175279
    },
    {
      "id": "clinton_ar",
      "label": "Clinton, AR",
      "lat": 35.5928879,
      "lon": -92.4573348
    },
    {
      "id": "clinton_ms",
      "label": "Clinton, MS",
      "lat": 32.3410552,
      "lon": -90.3215983
    },
    {
      "id": "clinton_nc",
      "label": "Clinton, NC",
      "lat": 34.9979453,
      "lon": -78.3233325
    },
    {
      "id": "clinton_oh",
      "label": "Clinton, OH",
      "lat": 39.4259873,
      "lon": -83.8445792
    },
    {
      "id": "clinton_tn",
      "label": "Clinton, TN",
      "lat": 36.1034126,
      "lon": -84.1318632
    },
    {
      "id": "clio_mi",
      "label": "Clio, MI",
      "lat": 43.1774215,
      "lon": -83.7346897
    },
    {
      "id": "clopton_al",
      "label": "Clopton, AL",
      "lat": 31.6085002,
      "lon": -85.4299374
    },
    {
      "id": "clover_sc",
      "label": "Clover, SC",
      "lat": 35.1112478,
      "lon": -81.2264646
    },
    {
      "id": "cloverdale_ca",
      "label": "Cloverdale, CA",
      "lat": 38.8064632,
      "lon": -123.0178759
    },
    {
      "id": "coaling_al",
      "label": "Coaling, AL",
      "lat": 33.1590078,
      "lon": -87.340834
    },
    {
      "id": "coarsegold_ca",
      "label": "Coarsegold, CA",
      "lat": 37.2621687,
      "lon": -119.700983
    },
    {
      "id": "coatesville_pa",
      "label": "Coatesville, PA",
      "lat": 39.9831616,
      "lon": -75.8238355
    },
    {
      "id": "cocoa_beach_fl",
      "label": "Cocoa Beach, FL",
      "lat": 28.3184107,
      "lon": -80.6094959
    },
    {
      "id": "cocoa_fl",
      "label": "Cocoa, FL",
      "lat": 28.3556635,
      "lon": -80.7325345
    },
    {
      "id": "coeburn_va",
      "label": "Coeburn, VA",
      "lat": 36.9439917,
      "lon": -82.4640401
    },
    {
      "id": "coeur_dalene_id",
      "label": "Coeur D'Alene, ID",
      "lat": 47.6742994,
      "lon": -116.7811531
    },
    {
      "id": "colbert_ga",
      "label": "Colbert, GA",
      "lat": 34.0378903,
      "lon": -83.2126517
    },
    {
      "id": "college_grove_tn",
      "label": "College Grove, TN",
      "lat": 35.788399,
      "lon": -86.6744409
    },
    {
      "id": "collegeville_pa",
      "label": "Collegeville, PA",
      "lat": 40.1856597,
      "lon": -75.451571
    },
    {
      "id": "colleyville_tx",
      "label": "Colleyville, TX",
      "lat": 32.8809603,
      "lon": -97.155012
    },
    {
      "id": "collierville_tn",
      "label": "Collierville, TN",
      "lat": 35.042036,
      "lon": -89.6645266
    },
    {
      "id": "collins_ms",
      "label": "Collins, MS",
      "lat": 31.6457944,
      "lon": -89.5553297
    },
    {
      "id": "collinsville_il",
      "label": "Collinsville, IL",
      "lat": 38.6703267,
      "lon": -89.9845476
    },
    {
      "id": "collinsville_ok",
      "label": "Collinsville, OK",
      "lat": 36.3661205,
      "lon": -95.8398108
    },
    {
      "id": "colonial_heights_va",
      "label": "Colonial Heights, VA",
      "lat": 37.2555718,
      "lon": -77.4112016
    },
    {
      "id": "colorado_springs_co",
      "label": "Colorado Springs, CO",
      "lat": 38.8339578,
      "lon": -104.825348
    },
    {
      "id": "colts_neck_nj",
      "label": "Colts Neck, NJ",
      "lat": 40.2876108,
      "lon": -74.1723652
    },
    {
      "id": "columbia_ky",
      "label": "Columbia, KY",
      "lat": 37.102841,
      "lon": -85.3063504
    },
    {
      "id": "columbia_la",
      "label": "Columbia, LA",
      "lat": 32.1051567,
      "lon": -92.0779129
    },
    {
      "id": "columbia_md",
      "label": "Columbia, MD",
      "lat": 39.1938429,
      "lon": -76.8646092
    },
    {
      "id": "columbia_mo",
      "label": "Columbia, MO",
      "lat": 38.951883,
      "lon": -92.3337366
    },
    {
      "id": "columbia_ms",
      "label": "Columbia, MS",
      "lat": 31.2518582,
      "lon": -89.8353099
    },
    {
      "id": "columbia_sc",
      "label": "Columbia, SC",
      "lat": 34.000754,
      "lon": -81.0352313
    },
    {
      "id": "columbia_tn",
      "label": "Columbia, TN",
      "lat": 35.6148165,
      "lon": -87.0338464
    },
    {
      "id": "columbus_ga",
      "label": "Columbus, GA",
      "lat": 32.4610708,
      "lon": -84.9880449
    },
    {
      "id": "columbus_ms",
      "label": "Columbus, MS",
      "lat": 33.4956744,
      "lon": -88.4272627
    },
    {
      "id": "columbus_nc",
      "label": "Columbus, NC",
      "lat": 34.2814497,
      "lon": -78.666593
    },
    {
      "id": "columbus_oh",
      "label": "Columbus, OH",
      "lat": 39.9622601,
      "lon": -83.0007065
    },
    {
      "id": "commack_ny",
      "label": "Commack, NY",
      "lat": 40.8393515,
      "lon": -73.2858994
    },
    {
      "id": "como_ms",
      "label": "Como, MS",
      "lat": 34.5112588,
      "lon": -89.9399403
    },
    {
      "id": "concord_ca",
      "label": "Concord, CA",
      "lat": 37.9768525,
      "lon": -122.0335624
    },
    {
      "id": "concord_nc",
      "label": "Concord, NC",
      "lat": 35.4094178,
      "lon": -80.5800049
    },
    {
      "id": "conley_ga",
      "label": "Conley, GA",
      "lat": 33.635655,
      "lon": -84.3293733
    },
    {
      "id": "connellsville_pa",
      "label": "Connellsville, PA",
      "lat": 40.0178522,
      "lon": -79.5894828
    },
    {
      "id": "connelly_springs_nc",
      "label": "Connelly Springs, NC",
      "lat": 35.7399645,
      "lon": -81.5029788
    },
    {
      "id": "conshohocken_pa",
      "label": "Conshohocken, PA",
      "lat": 40.0792766,
      "lon": -75.3015714
    },
    {
      "id": "conway_ar",
      "label": "Conway, AR",
      "lat": 35.0891932,
      "lon": -92.4398402
    },
    {
      "id": "conway_sc",
      "label": "Conway, SC",
      "lat": 33.8360035,
      "lon": -79.0478143
    },
    {
      "id": "conyers_ga",
      "label": "Conyers, GA",
      "lat": 33.6676103,
      "lon": -84.0176904
    },
    {
      "id": "cookeville_tn",
      "label": "Cookeville, TN",
      "lat": 36.1623886,
      "lon": -85.4997057
    },
    {
      "id": "coon_rapids_mn",
      "label": "Coon Rapids, MN",
      "lat": 45.1728923,
      "lon": -93.3023898
    },
    {
      "id": "coos_bay_or",
      "label": "Coos Bay, OR",
      "lat": 43.3678937,
      "lon": -124.2174647
    },
    {
      "id": "coquitlam_bc",
      "label": "Coquitlam, BC",
      "lat": 49.2842958,
      "lon": -122.793281
    },
    {
      "id": "coral_gables_fl",
      "label": "Coral Gables, FL",
      "lat": 25.7331105,
      "lon": -80.2585107
    },
    {
      "id": "coral_springs_fl",
      "label": "Coral Springs, FL",
      "lat": 26.271192,
      "lon": -80.2706044
    },
    {
      "id": "coralville_ia",
      "label": "Coralville, IA",
      "lat": 41.6759977,
      "lon": -91.580705
    },
    {
      "id": "corbin_ky",
      "label": "Corbin, KY",
      "lat": 36.9486986,
      "lon": -84.0968761
    },
    {
      "id": "crdoba_crdoba",
      "label": "C√≥rdoba, C√ìRDOBA",
      "lat": 37.8845813,
      "lon": -4.7760138
    },
    {
      "id": "corinth_ms",
      "label": "Corinth, MS",
      "lat": 34.9343599,
      "lon": -88.5223353
    },
    {
      "id": "cornelius_nc",
      "label": "Cornelius, NC",
      "lat": 35.481705,
      "lon": -80.8590006
    },
    {
      "id": "cornell_il",
      "label": "Cornell, IL",
      "lat": 40.9900326,
      "lon": -88.7292337
    },
    {
      "id": "corolla_nc",
      "label": "Corolla, NC",
      "lat": 36.3847464,
      "lon": -75.8286983
    },
    {
      "id": "corpus_christi_tx",
      "label": "Corpus Christi, TX",
      "lat": 27.7635302,
      "lon": -97.4033191
    },
    {
      "id": "corsicana_tx",
      "label": "Corsicana, TX",
      "lat": 32.0938236,
      "lon": -96.464675
    },
    {
      "id": "cortland_ny",
      "label": "Cortland, NY",
      "lat": 42.5842136,
      "lon": -76.0704906
    },
    {
      "id": "corydon_in",
      "label": "Corydon, IN",
      "lat": 38.2129325,
      "lon": -86.125386
    },
    {
      "id": "cottage_grove_mn",
      "label": "Cottage Grove, MN",
      "lat": 44.8277446,
      "lon": -92.9438218
    },
    {
      "id": "cottondale_al",
      "label": "Cottondale, AL",
      "lat": 33.1998045,
      "lon": -87.4530148
    },
    {
      "id": "cottondale_fl",
      "label": "Cottondale, FL",
      "lat": 30.7971363,
      "lon": -85.3765965
    },
    {
      "id": "council_bluffs_ia",
      "label": "Council Bluffs, IA",
      "lat": 41.258841,
      "lon": -95.8519484
    },
    {
      "id": "courtland_ms",
      "label": "Courtland, MS",
      "lat": 34.2409438,
      "lon": -89.9428679
    },
    {
      "id": "covina_ca",
      "label": "Covina, CA",
      "lat": 34.0877926,
      "lon": -117.8891164
    },
    {
      "id": "covington_ga",
      "label": "Covington, GA",
      "lat": 33.5966005,
      "lon": -83.8598742
    },
    {
      "id": "covington_la",
      "label": "Covington, LA",
      "lat": 30.4753525,
      "lon": -90.1010474
    },
    {
      "id": "cowarts_al",
      "label": "Cowarts, AL",
      "lat": 31.2003319,
      "lon": -85.3047506
    },
    {
      "id": "crandall_ga",
      "label": "Crandall, GA",
      "lat": 34.8667459,
      "lon": -84.7454939
    },
    {
      "id": "cream_ridge_nj",
      "label": "Cream Ridge, NJ",
      "lat": 40.1312275,
      "lon": -74.5350037
    },
    {
      "id": "cresson_pa",
      "label": "Cresson, PA",
      "lat": 40.4597938,
      "lon": -78.5916837
    },
    {
      "id": "crest_hill_il",
      "label": "Crest Hill, IL",
      "lat": 41.554753,
      "lon": -88.0986709
    },
    {
      "id": "crestview_fl",
      "label": "Crestview, FL",
      "lat": 30.7621326,
      "lon": -86.5705084
    },
    {
      "id": "crestwood_ky",
      "label": "Crestwood, KY",
      "lat": 38.3235441,
      "lon": -85.4726215
    },
    {
      "id": "crofton_md",
      "label": "Crofton, MD",
      "lat": 39.0159547,
      "lon": -76.6842057
    },
    {
      "id": "cross_plains_tn",
      "label": "Cross Plains, TN",
      "lat": 36.5486597,
      "lon": -86.6961102
    },
    {
      "id": "crossville_al",
      "label": "Crossville, AL",
      "lat": 34.2875925,
      "lon": -85.99414
    },
    {
      "id": "crossville_tn",
      "label": "Crossville, TN",
      "lat": 35.949684,
      "lon": -85.0274835
    },
    {
      "id": "crowley_la",
      "label": "Crowley, LA",
      "lat": 30.2140928,
      "lon": -92.3745761
    },
    {
      "id": "crown_point_in",
      "label": "Crown Point, IN",
      "lat": 41.4169806,
      "lon": -87.3653136
    },
    {
      "id": "croydon_pa",
      "label": "Croydon, PA",
      "lat": 40.0894885,
      "lon": -74.8980805
    },
    {
      "id": "culleoka_tn",
      "label": "Culleoka, TN",
      "lat": 35.4795186,
      "lon": -86.9830602
    },
    {
      "id": "cullman_al",
      "label": "Cullman, AL",
      "lat": 34.1335332,
      "lon": -86.8779268
    },
    {
      "id": "cumberland_ky",
      "label": "Cumberland, KY",
      "lat": 36.7934611,
      "lon": -85.3795095
    },
    {
      "id": "cumming_ga",
      "label": "Cumming, GA",
      "lat": 34.2073196,
      "lon": -84.1401926
    },
    {
      "id": "cumming_ia",
      "label": "Cumming, IA",
      "lat": 41.4833235,
      "lon": -93.7624442
    },
    {
      "id": "cusseta_al",
      "label": "Cusseta, AL",
      "lat": 32.7848521,
      "lon": -85.3057779
    },
    {
      "id": "cutchogue_ny",
      "label": "Cutchogue, NY",
      "lat": 41.018683,
      "lon": -72.4891577
    },
    {
      "id": "cypress_tx",
      "label": "Cypress, TX",
      "lat": 29.9691116,
      "lon": -95.6971686
    },
    {
      "id": "diberville_ms",
      "label": "D'Iberville, MS",
      "lat": 30.4263092,
      "lon": -88.8908638
    },
    {
      "id": "dacula_ga",
      "label": "Dacula, GA",
      "lat": 33.9887165,
      "lon": -83.8979573
    },
    {
      "id": "dahlonega_ga",
      "label": "Dahlonega, GA",
      "lat": 34.5328484,
      "lon": -83.9845723
    },
    {
      "id": "dale_in",
      "label": "Dale, IN",
      "lat": 38.1689416,
      "lon": -86.9899966
    },
    {
      "id": "dallas_ga",
      "label": "Dallas, GA",
      "lat": 33.9237141,
      "lon": -84.8407732
    },
    {
      "id": "dallas_nc",
      "label": "Dallas, NC",
      "lat": 35.3160401,
      "lon": -81.1764865
    },
    {
      "id": "dallas_tx",
      "label": "Dallas, TX",
      "lat": 32.7762719,
      "lon": -96.7968559
    },
    {
      "id": "dalton_ga",
      "label": "Dalton, GA",
      "lat": 34.7691867,
      "lon": -84.9702475
    },
    {
      "id": "damascus_md",
      "label": "Damascus, MD",
      "lat": 39.2694729,
      "lon": -77.1968886
    },
    {
      "id": "dana_point_ca",
      "label": "Dana Point, CA",
      "lat": 33.4669721,
      "lon": -117.6981075
    },
    {
      "id": "danbury_ct",
      "label": "Danbury, CT",
      "lat": 41.394817,
      "lon": -73.4540111
    },
    {
      "id": "dandridge_tn",
      "label": "Dandridge, TN",
      "lat": 36.0153693,
      "lon": -83.4148895
    },
    {
      "id": "dania_beach_fl",
      "label": "Dania Beach, FL",
      "lat": 26.0524224,
      "lon": -80.143929
    },
    {
      "id": "danielsville_ga",
      "label": "Danielsville, GA",
      "lat": 34.1242771,
      "lon": -83.2212629
    },
    {
      "id": "dansville_mi",
      "label": "Dansville, MI",
      "lat": 42.555869,
      "lon": -84.3033013
    },
    {
      "id": "danvers_ma",
      "label": "Danvers, MA",
      "lat": 42.5664984,
      "lon": -70.9362957
    },
    {
      "id": "danville_ca",
      "label": "Danville, CA",
      "lat": 37.8225892,
      "lon": -122.0008254
    },
    {
      "id": "danville_ky",
      "label": "Danville, KY",
      "lat": 37.6456488,
      "lon": -84.7721823
    },
    {
      "id": "danville_pa",
      "label": "Danville, PA",
      "lat": 40.9664806,
      "lon": -76.6131474
    },
    {
      "id": "danville_va",
      "label": "Danville, VA",
      "lat": 36.5879877,
      "lon": -79.3916713
    },
    {
      "id": "daphne_al",
      "label": "Daphne, AL",
      "lat": 30.6035255,
      "lon": -87.9036047
    },
    {
      "id": "darlington_point_nsw",
      "label": "Darlington Point, NSW",
      "lat": -34.5659957,
      "lon": 146.0002828
    },
    {
      "id": "darmstadt_in",
      "label": "Darmstadt, IN",
      "lat": 38.0992098,
      "lon": -87.5789075
    },
    {
      "id": "davenport_fl",
      "label": "Davenport, FL",
      "lat": 28.1614046,
      "lon": -81.6017417
    },
    {
      "id": "davie_fl",
      "label": "Davie, FL",
      "lat": 26.0628665,
      "lon": -80.2331038
    },
    {
      "id": "dawsonville_ga",
      "label": "Dawsonville, GA",
      "lat": 34.4212053,
      "lon": -84.1190804
    },
    {
      "id": "dayton_oh",
      "label": "Dayton, OH",
      "lat": 39.7589478,
      "lon": -84.1916069
    },
    {
      "id": "dayton_ohio",
      "label": "Dayton, OHIO",
      "lat": 39.7589478,
      "lon": -84.1916069
    },
    {
      "id": "dayton_tn",
      "label": "Dayton, TN",
      "lat": 35.4939587,
      "lon": -85.0124535
    },
    {
      "id": "daytona_beach_fl",
      "label": "Daytona Beach, FL",
      "lat": 29.2108147,
      "lon": -81.0228331
    },
    {
      "id": "daytona_fl",
      "label": "Daytona, FL",
      "lat": 29.2108147,
      "lon": -81.0228331
    },
    {
      "id": "de_kalb_tx",
      "label": "De Kalb, TX",
      "lat": 33.5087256,
      "lon": -94.616319
    },
    {
      "id": "de_leon_springs_fl",
      "label": "De Leon Springs, FL",
      "lat": 29.118443,
      "lon": -81.3527674
    },
    {
      "id": "de_queen_ar",
      "label": "De Queen, AR",
      "lat": 34.0378916,
      "lon": -94.3413168
    },
    {
      "id": "dearborn_heights_mi",
      "label": "Dearborn Heights, MI",
      "lat": 42.3369816,
      "lon": -83.2732627
    },
    {
      "id": "dearing_ga",
      "label": "Dearing, GA",
      "lat": 33.4131947,
      "lon": -82.3851255
    },
    {
      "id": "debary_fl",
      "label": "Debary, FL",
      "lat": 28.8830604,
      "lon": -81.3088385
    },
    {
      "id": "decatur_al",
      "label": "Decatur, AL",
      "lat": 34.6060203,
      "lon": -86.9838165
    },
    {
      "id": "decatur_ga",
      "label": "Decatur, GA",
      "lat": 30.8736613,
      "lon": -84.5740953
    },
    {
      "id": "decatur_mi",
      "label": "Decatur, MI",
      "lat": 42.1080979,
      "lon": -85.9744569
    },
    {
      "id": "deer_park_il",
      "label": "Deer Park, IL",
      "lat": 42.1608585,
      "lon": -88.0814651
    },
    {
      "id": "deerfield_beach_fl",
      "label": "Deerfield Beach, FL",
      "lat": 26.318342,
      "lon": -80.0996306
    },
    {
      "id": "deford_mi",
      "label": "Deford, MI",
      "lat": 43.5133532,
      "lon": -83.192446
    },
    {
      "id": "defuniak_springs_fl",
      "label": "Defuniak Springs, FL",
      "lat": 30.7210227,
      "lon": -86.1152184
    },
    {
      "id": "dekalb_il",
      "label": "Dekalb, IL",
      "lat": 41.8903447,
      "lon": -88.7713953
    },
    {
      "id": "deland_fl",
      "label": "Deland, FL",
      "lat": 29.0281051,
      "lon": -81.3034183
    },
    {
      "id": "delano_tn",
      "label": "Delano, TN",
      "lat": 35.265073,
      "lon": -84.5532652
    },
    {
      "id": "delphi_in",
      "label": "Delphi, IN",
      "lat": 40.5875371,
      "lon": -86.6750059
    },
    {
      "id": "delray_beach_fl",
      "label": "Delray Beach, FL",
      "lat": 26.4614625,
      "lon": -80.0728201
    },
    {
      "id": "delta_bc",
      "label": "Delta, BC",
      "lat": 49.0846258,
      "lon": -123.057938
    },
    {
      "id": "deltona_fl",
      "label": "Deltona, FL",
      "lat": 28.904843,
      "lon": -81.2273119
    },
    {
      "id": "denderleeuw_vlaams_gewest",
      "label": "Denderleeuw, VLAAMS GEWEST",
      "lat": 50.8914465,
      "lon": 4.0714878
    },
    {
      "id": "denham_springs_la",
      "label": "Denham Springs, LA",
      "lat": 30.4868564,
      "lon": -90.9562125
    },
    {
      "id": "denton_tx",
      "label": "Denton, TX",
      "lat": 33.1838787,
      "lon": -97.1413417
    },
    {
      "id": "denver_co",
      "label": "Denver, CO",
      "lat": 39.7392364,
      "lon": -104.984862
    },
    {
      "id": "denver_nc",
      "label": "Denver, NC",
      "lat": 35.5312452,
      "lon": -81.0297994
    },
    {
      "id": "denville_nj",
      "label": "Denville, NJ",
      "lat": 40.8922694,
      "lon": -74.4774255
    },
    {
      "id": "deridder_la",
      "label": "Deridder, LA",
      "lat": 30.846201,
      "lon": -93.289281
    },
    {
      "id": "des_moines_ia",
      "label": "Des Moines, IA",
      "lat": 41.5868654,
      "lon": -93.6249494
    },
    {
      "id": "deschutes_or",
      "label": "Deschutes, OR",
      "lat": 43.8194838,
      "lon": -121.1669662
    },
    {
      "id": "destin_fl",
      "label": "Destin, FL",
      "lat": 30.3935337,
      "lon": -86.4957834
    },
    {
      "id": "destrehan_la",
      "label": "Destrehan, LA",
      "lat": 29.960933,
      "lon": -90.3705407
    },
    {
      "id": "detroit_mi",
      "label": "Detroit, MI",
      "lat": 42.3315509,
      "lon": -83.0466403
    },
    {
      "id": "dewey_az",
      "label": "Dewey, AZ",
      "lat": 34.5297551,
      "lon": -112.2421149
    },
    {
      "id": "dexter_ky",
      "label": "Dexter, KY",
      "lat": 36.7428328,
      "lon": -88.2964248
    },
    {
      "id": "dexter_mo",
      "label": "Dexter, MO",
      "lat": 36.7932594,
      "lon": -89.9532508
    },
    {
      "id": "diamondhead_ms",
      "label": "Diamondhead, MS",
      "lat": 30.3946392,
      "lon": -89.3639378
    },
    {
      "id": "diboll_tx",
      "label": "Diboll, TX",
      "lat": 31.1871319,
      "lon": -94.7810412
    },
    {
      "id": "dickinson_tx",
      "label": "Dickinson, TX",
      "lat": 29.4607876,
      "lon": -95.0513173
    },
    {
      "id": "dickson_tn",
      "label": "Dickson, TN",
      "lat": 36.1459327,
      "lon": -87.3480592
    },
    {
      "id": "dimondale_mi",
      "label": "Dimondale, MI",
      "lat": 42.6455931,
      "lon": -84.648949
    },
    {
      "id": "disd_pe",
      "label": "Di√≥sd, PE",
      "lat": 47.406256,
      "lon": 18.9448604
    },
    {
      "id": "dodgeville_wi",
      "label": "Dodgeville, WI",
      "lat": 42.9600059,
      "lon": -90.1304461
    },
    {
      "id": "donalsonville_ga",
      "label": "Donalsonville, GA",
      "lat": 31.0404625,
      "lon": -84.8790911
    },
    {
      "id": "doral_fl",
      "label": "Doral, FL",
      "lat": 25.8195424,
      "lon": -80.3553302
    },
    {
      "id": "dothan_al",
      "label": "Dothan, AL",
      "lat": 31.2237285,
      "lon": -85.3934375
    },
    {
      "id": "douglassville_pa",
      "label": "Douglassville, PA",
      "lat": 40.2578714,
      "lon": -75.7263008
    },
    {
      "id": "douglasville_ga",
      "label": "Douglasville, GA",
      "lat": 33.7514966,
      "lon": -84.7477136
    },
    {
      "id": "dover_de",
      "label": "Dover, DE",
      "lat": 39.158168,
      "lon": -75.5243682
    },
    {
      "id": "dover_fl",
      "label": "Dover, FL",
      "lat": 27.9943935,
      "lon": -82.2217111
    },
    {
      "id": "dover_tn",
      "label": "Dover, TN",
      "lat": 36.4878291,
      "lon": -87.8383567
    },
    {
      "id": "downers_grove_il",
      "label": "Downers Grove, IL",
      "lat": 41.7936822,
      "lon": -88.0102281
    },
    {
      "id": "downingtown_pa",
      "label": "Downingtown, PA",
      "lat": 40.0064958,
      "lon": -75.7032742
    },
    {
      "id": "dracut_ma",
      "label": "Dracut, MA",
      "lat": 42.6688173,
      "lon": -71.3033665
    },
    {
      "id": "draper_ut",
      "label": "Draper, UT",
      "lat": 40.5247777,
      "lon": -111.8627989
    },
    {
      "id": "dresden_tn",
      "label": "Dresden, TN",
      "lat": 36.2914512,
      "lon": -88.7081123
    },
    {
      "id": "drexel_hill_pa",
      "label": "Drexel Hill, PA",
      "lat": 39.9483282,
      "lon": -75.3068878
    },
    {
      "id": "dry_branch_ga",
      "label": "Dry Branch, GA",
      "lat": 32.8006943,
      "lon": -83.4985112
    },
    {
      "id": "dryden_va",
      "label": "Dryden, VA",
      "lat": 36.7743115,
      "lon": -82.9386602
    },
    {
      "id": "duanesburg_ny",
      "label": "Duanesburg, NY",
      "lat": 42.76202,
      "lon": -74.1337383
    },
    {
      "id": "dublin_ga",
      "label": "Dublin, GA",
      "lat": 32.5404447,
      "lon": -82.903754
    },
    {
      "id": "dudley_ga",
      "label": "Dudley, GA",
      "lat": 32.5423872,
      "lon": -83.0704273
    },
    {
      "id": "dudley_nc",
      "label": "Dudley, NC",
      "lat": 35.2673857,
      "lon": -78.0374891
    },
    {
      "id": "duluth_ga",
      "label": "Duluth, GA",
      "lat": 34.0028569,
      "lon": -84.1441046
    },
    {
      "id": "duncan_sc",
      "label": "Duncan, SC",
      "lat": 34.9378962,
      "lon": -82.1451096
    },
    {
      "id": "duncansville_pa",
      "label": "Duncansville, PA",
      "lat": 40.4234058,
      "lon": -78.433903
    },
    {
      "id": "duncanville_tx",
      "label": "Duncanville, TX",
      "lat": 32.6518004,
      "lon": -96.9083366
    },
    {
      "id": "dunedin_fl",
      "label": "Dunedin, FL",
      "lat": 28.0116627,
      "lon": -82.7893788
    },
    {
      "id": "dunlap_tn",
      "label": "Dunlap, TN",
      "lat": 35.3714575,
      "lon": -85.3905209
    },
    {
      "id": "dunn_nc",
      "label": "Dunn, NC",
      "lat": 35.3076902,
      "lon": -78.6093257
    },
    {
      "id": "dunnellon_fl",
      "label": "Dunnellon, FL",
      "lat": 29.0491426,
      "lon": -82.4609331
    },
    {
      "id": "durham_nc",
      "label": "Durham, NC",
      "lat": 35.996653,
      "lon": -78.9018053
    },
    {
      "id": "dushanbe_tajikistan",
      "label": "Dushanbe, TAJIKISTAN",
      "lat": 38.5856814,
      "lon": 68.760331
    },
    {
      "id": "duxbury_ma",
      "label": "Duxbury, MA",
      "lat": 42.0417695,
      "lon": -70.672259
    },
    {
      "id": "dwight_il",
      "label": "Dwight, IL",
      "lat": 41.0944767,
      "lon": -88.4250597
    },
    {
      "id": "eagle_lake_fl",
      "label": "Eagle Lake, FL",
      "lat": 27.9783565,
      "lon": -81.7564688
    },
    {
      "id": "easley_sc",
      "label": "Easley, SC",
      "lat": 34.8269276,
      "lon": -82.5817053
    },
    {
      "id": "east_aurora_ny",
      "label": "East Aurora, NY",
      "lat": 42.7689141,
      "lon": -78.6177611
    },
    {
      "id": "east_hampton_ct",
      "label": "East Hampton, CT",
      "lat": 41.5758442,
      "lon": -72.5024804
    },
    {
      "id": "east_hanover_nj",
      "label": "East Hanover, NJ",
      "lat": 40.8200998,
      "lon": -74.3648731
    },
    {
      "id": "east_hartford_connecticut",
      "label": "East Hartford, CONNECTICUT",
      "lat": 41.767914,
      "lon": -72.644512
    },
    {
      "id": "east_wenatchee_wa",
      "label": "East Wenatchee, WA",
      "lat": 47.4156824,
      "lon": -120.293126
    },
    {
      "id": "eastman_ga",
      "label": "Eastman, GA",
      "lat": 32.1979807,
      "lon": -83.17615
    },
    {
      "id": "easton_ma",
      "label": "Easton, MA",
      "lat": 42.0245442,
      "lon": -71.1286594
    },
    {
      "id": "easton_pa",
      "label": "Easton, PA",
      "lat": 40.6916081,
      "lon": -75.2099866
    },
    {
      "id": "easton_wa",
      "label": "Easton, WA",
      "lat": 47.240675,
      "lon": -121.182931
    },
    {
      "id": "eastpoint_fl",
      "label": "Eastpoint, FL",
      "lat": 29.752006,
      "lon": -84.8684746
    },
    {
      "id": "eastvale_ca",
      "label": "Eastvale, CA",
      "lat": 33.9747067,
      "lon": -117.566541
    },
    {
      "id": "eastview_ky",
      "label": "Eastview, KY",
      "lat": 37.588949,
      "lon": -86.0558003
    },
    {
      "id": "eaton_rapids_mi",
      "label": "Eaton Rapids, MI",
      "lat": 42.5092039,
      "lon": -84.655814
    },
    {
      "id": "eatonton_ga",
      "label": "Eatonton, GA",
      "lat": 33.3267128,
      "lon": -83.388485
    },
    {
      "id": "eau_claire_wi",
      "label": "Eau Claire, WI",
      "lat": 44.811349,
      "lon": -91.4984941
    },
    {
      "id": "ebensburg_pa",
      "label": "Ebensburg, PA",
      "lat": 40.4852783,
      "lon": -78.7248434
    },
    {
      "id": "edgerton_wi",
      "label": "Edgerton, WI",
      "lat": 42.8334758,
      "lon": -89.0693988
    },
    {
      "id": "edgewater_fl",
      "label": "Edgewater, FL",
      "lat": 28.9888754,
      "lon": -80.9022758
    },
    {
      "id": "edgewood_new_mexico",
      "label": "Edgewood, NEW MEXICO",
      "lat": 35.0613019,
      "lon": -106.1911055
    },
    {
      "id": "edmond_ok",
      "label": "Edmond, OK",
      "lat": 35.6571367,
      "lon": -97.4649038
    },
    {
      "id": "edmonds_wa",
      "label": "Edmonds, WA",
      "lat": 47.8105738,
      "lon": -122.3774952
    },
    {
      "id": "edmonton_ab",
      "label": "Edmonton, AB",
      "lat": 53.5462055,
      "lon": -113.491241
    },
    {
      "id": "edwardsville_il",
      "label": "Edwardsville, IL",
      "lat": 38.8114364,
      "lon": -89.953157
    },
    {
      "id": "egg_harbor_twp_nj",
      "label": "Egg Harbor Twp, NJ",
      "lat": 39.3820672,
      "lon": -74.6171489
    },
    {
      "id": "eglin_air_force_base_fl",
      "label": "Eglin Air Force Base, FL",
      "lat": 30.5776961,
      "lon": -86.5139603
    },
    {
      "id": "el_dorado_ar",
      "label": "El Dorado, AR",
      "lat": 33.2115087,
      "lon": -92.6650144
    },
    {
      "id": "el_paso_tx",
      "label": "El Paso, TX",
      "lat": 31.7601164,
      "lon": -106.4870404
    },
    {
      "id": "el_reno_ok",
      "label": "El Reno, OK",
      "lat": 35.532198,
      "lon": -97.9550578
    },
    {
      "id": "elba_al",
      "label": "Elba, AL",
      "lat": 31.4146108,
      "lon": -86.0677243
    },
    {
      "id": "eldon_missouri",
      "label": "Eldon, MISSOURI",
      "lat": 38.3494456,
      "lon": -92.5805241
    },
    {
      "id": "eldorado_il",
      "label": "Eldorado, IL",
      "lat": 37.8136583,
      "lon": -88.4381029
    },
    {
      "id": "elephant_butte_nm",
      "label": "Elephant Butte, NM",
      "lat": 33.1975054,
      "lon": -107.224159
    },
    {
      "id": "elgin_il",
      "label": "Elgin, IL",
      "lat": 42.03726,
      "lon": -88.2810994
    },
    {
      "id": "elgin_sc",
      "label": "Elgin, SC",
      "lat": 34.1709826,
      "lon": -80.794252
    },
    {
      "id": "elgin_tx",
      "label": "Elgin, TX",
      "lat": 30.3495084,
      "lon": -97.371118
    },
    {
      "id": "elizabethton_tn",
      "label": "Elizabethton, TN",
      "lat": 36.3487756,
      "lon": -82.2107617
    },
    {
      "id": "elizabethtown_ky",
      "label": "Elizabethtown, KY",
      "lat": 37.693952,
      "lon": -85.8591285
    },
    {
      "id": "elkhart_in",
      "label": "Elkhart, IN",
      "lat": 41.6012796,
      "lon": -85.8590603
    },
    {
      "id": "elkhorn_city_ky",
      "label": "Elkhorn City, KY",
      "lat": 37.3039971,
      "lon": -82.3509795
    },
    {
      "id": "elkhorn_ne",
      "label": "Elkhorn, NE",
      "lat": 41.2860699,
      "lon": -96.2346121
    },
    {
      "id": "elkhorn_wi",
      "label": "Elkhorn, WI",
      "lat": 42.6719206,
      "lon": -88.543494
    },
    {
      "id": "elko_new_market_mn",
      "label": "Elko New Market, MN",
      "lat": 44.5658196,
      "lon": -93.3388079
    },
    {
      "id": "elkridge_md",
      "label": "Elkridge, MD",
      "lat": 39.1938631,
      "lon": -76.7420903
    },
    {
      "id": "ellaville_ga",
      "label": "Ellaville, GA",
      "lat": 32.2379098,
      "lon": -84.3089928
    },
    {
      "id": "ellenboro_nc",
      "label": "Ellenboro, NC",
      "lat": 35.3287949,
      "lon": -81.7587106
    },
    {
      "id": "ellenton_fl",
      "label": "Ellenton, FL",
      "lat": 27.517143,
      "lon": -82.548708
    },
    {
      "id": "ellenwood_ga",
      "label": "Ellenwood, GA",
      "lat": 33.6101096,
      "lon": -84.287978
    },
    {
      "id": "ellijay_ga",
      "label": "Ellijay, GA",
      "lat": 34.6950278,
      "lon": -84.4827394
    },
    {
      "id": "ellisville_mo",
      "label": "Ellisville, MO",
      "lat": 38.5946373,
      "lon": -90.584838
    },
    {
      "id": "ellisville_ms",
      "label": "Ellisville, MS",
      "lat": 31.6047734,
      "lon": -89.195641
    },
    {
      "id": "elmhurst_il",
      "label": "Elmhurst, IL",
      "lat": 41.8994745,
      "lon": -87.9403418
    },
    {
      "id": "elmore_al",
      "label": "Elmore, AL",
      "lat": 32.5801231,
      "lon": -86.125195
    },
    {
      "id": "enfield_ct",
      "label": "Enfield, CT",
      "lat": 41.9767721,
      "lon": -72.5917113
    },
    {
      "id": "englewood_fl",
      "label": "Englewood, FL",
      "lat": 26.9606125,
      "lon": -82.3576324
    },
    {
      "id": "englewood_tn",
      "label": "Englewood, TN",
      "lat": 35.4245184,
      "lon": -84.4874289
    },
    {
      "id": "enid_ok",
      "label": "Enid, OK",
      "lat": 36.3967623,
      "lon": -97.8791341
    },
    {
      "id": "enterprise_al",
      "label": "Enterprise, AL",
      "lat": 31.3151708,
      "lon": -85.8552161
    },
    {
      "id": "erie_co",
      "label": "Erie, CO",
      "lat": 40.0502623,
      "lon": -105.049981
    },
    {
      "id": "erie_pa",
      "label": "Erie, PA",
      "lat": 42.1294712,
      "lon": -80.0852695
    },
    {
      "id": "escondido_ca",
      "label": "Escondido, CA",
      "lat": 33.1216751,
      "lon": -117.0814849
    },
    {
      "id": "essex_junction_vt",
      "label": "Essex Junction, VT",
      "lat": 44.4906817,
      "lon": -73.11136
    },
    {
      "id": "essex_vt",
      "label": "Essex, VT",
      "lat": 44.5230418,
      "lon": -73.0622703
    },
    {
      "id": "estero_fl",
      "label": "Estero, FL",
      "lat": 26.4381474,
      "lon": -81.8067537
    },
    {
      "id": "ethridge_tn",
      "label": "Ethridge, TN",
      "lat": 35.32369,
      "lon": -87.3036262
    },
    {
      "id": "etna_pa",
      "label": "Etna, PA",
      "lat": 40.5035986,
      "lon": -79.9484404
    },
    {
      "id": "etters_pa",
      "label": "Etters, PA",
      "lat": 40.2245912,
      "lon": -76.8980809
    },
    {
      "id": "eufaula_al",
      "label": "Eufaula, AL",
      "lat": 31.8912717,
      "lon": -85.1454876
    },
    {
      "id": "eugene_or",
      "label": "Eugene, OR",
      "lat": 44.0505054,
      "lon": -123.0950506
    },
    {
      "id": "eunice_la",
      "label": "Eunice, LA",
      "lat": 30.4943669,
      "lon": -92.4176324
    },
    {
      "id": "eustis_fl",
      "label": "Eustis, FL",
      "lat": 28.8527675,
      "lon": -81.6853534
    },
    {
      "id": "evans_ga",
      "label": "Evans, GA",
      "lat": 32.1613648,
      "lon": -81.8980725
    },
    {
      "id": "evansville_in",
      "label": "Evansville, IN",
      "lat": 37.970495,
      "lon": -87.5715641
    },
    {
      "id": "fair_oaks_ca",
      "label": "Fair Oaks, CA",
      "lat": 38.642897,
      "lon": -121.2462453
    },
    {
      "id": "fair_play_sc",
      "label": "Fair Play, SC",
      "lat": 34.5112129,
      "lon": -82.9854253
    },
    {
      "id": "fairborn_oh",
      "label": "Fairborn, OH",
      "lat": 39.8208998,
      "lon": -84.0193858
    },
    {
      "id": "fairburn_ga",
      "label": "Fairburn, GA",
      "lat": 33.5670562,
      "lon": -84.5810418
    },
    {
      "id": "fairfax_station_va",
      "label": "Fairfax Station, VA",
      "lat": 38.79255,
      "lon": -77.3451678
    },
    {
      "id": "fairfax_va",
      "label": "Fairfax, VA",
      "lat": 38.8462236,
      "lon": -77.3063733
    },
    {
      "id": "fairfield_ca",
      "label": "Fairfield, CA",
      "lat": 38.2493581,
      "lon": -122.039966
    },
    {
      "id": "fairhaven_ma",
      "label": "Fairhaven, MA",
      "lat": 41.6376043,
      "lon": -70.9036487
    },
    {
      "id": "fairhope_al",
      "label": "Fairhope, AL",
      "lat": 30.5231647,
      "lon": -87.9028458
    },
    {
      "id": "fairport_new_york",
      "label": "Fairport, NEW YORK",
      "lat": 43.0993,
      "lon": -77.443014
    },
    {
      "id": "fairport_ny",
      "label": "Fairport, NY",
      "lat": 43.0993,
      "lon": -77.443014
    },
    {
      "id": "fairview_nc",
      "label": "Fairview, NC",
      "lat": 35.5221896,
      "lon": -82.3926828
    },
    {
      "id": "fairview_pa",
      "label": "Fairview, PA",
      "lat": 41.0145075,
      "lon": -79.7428275
    },
    {
      "id": "fairview_tn",
      "label": "Fairview, TN",
      "lat": 35.9820074,
      "lon": -87.1213953
    },
    {
      "id": "falkville_al",
      "label": "Falkville, AL",
      "lat": 34.3684295,
      "lon": -86.908616
    },
    {
      "id": "falls_of_rough_ky",
      "label": "Falls Of Rough, KY",
      "lat": 37.5900543,
      "lon": -86.5488713
    },
    {
      "id": "fallston_md",
      "label": "Fallston, MD",
      "lat": 39.534843,
      "lon": -76.4221064
    },
    {
      "id": "fancy_gap_va",
      "label": "Fancy Gap, VA",
      "lat": 36.6729305,
      "lon": -80.692906
    },
    {
      "id": "far_hills_nj",
      "label": "Far Hills, NJ",
      "lat": 40.684268,
      "lon": -74.6357148
    },
    {
      "id": "fargo_nd",
      "label": "Fargo, ND",
      "lat": 46.877229,
      "lon": -96.789821
    },
    {
      "id": "fargo_north_dakota",
      "label": "Fargo, NORTH DAKOTA",
      "lat": 46.877229,
      "lon": -96.789821
    },
    {
      "id": "farmingdale_ny",
      "label": "Farmingdale, NY",
      "lat": 40.7328811,
      "lon": -73.4458564
    },
    {
      "id": "farragut_tn",
      "label": "Farragut, TN",
      "lat": 35.8845238,
      "lon": -84.1535261
    },
    {
      "id": "fayetteville_ga",
      "label": "Fayetteville, GA",
      "lat": 33.4487257,
      "lon": -84.4549262
    },
    {
      "id": "fayetteville_nc",
      "label": "Fayetteville, NC",
      "lat": 35.0525759,
      "lon": -78.878292
    },
    {
      "id": "fayetteville_tn",
      "label": "Fayetteville, TN",
      "lat": 35.1520267,
      "lon": -86.5705509
    },
    {
      "id": "federal_way_wa",
      "label": "Federal Way, WA",
      "lat": 47.313494,
      "lon": -122.33931
    },
    {
      "id": "fenton_mi",
      "label": "Fenton, MI",
      "lat": 42.7978061,
      "lon": -83.7049498
    },
    {
      "id": "fernandina_beach_fl",
      "label": "Fernandina Beach, FL",
      "lat": 30.6712285,
      "lon": -81.4630025
    },
    {
      "id": "ferndale_wa",
      "label": "Ferndale, WA",
      "lat": 48.8466698,
      "lon": -122.589723
    },
    {
      "id": "festus_mo",
      "label": "Festus, MO",
      "lat": 38.2207112,
      "lon": -90.3959504
    },
    {
      "id": "fillmore_ca",
      "label": "Fillmore, CA",
      "lat": 34.3985613,
      "lon": -118.9125093
    },
    {
      "id": "findlay_oh",
      "label": "Findlay, OH",
      "lat": 41.0413873,
      "lon": -83.6503982
    },
    {
      "id": "firestone_co",
      "label": "Firestone, CO",
      "lat": 40.1140277,
      "lon": -104.9392223
    },
    {
      "id": "fishers_in",
      "label": "Fishers, IN",
      "lat": 39.9555928,
      "lon": -86.0138729
    },
    {
      "id": "fitzgerald_ga",
      "label": "Fitzgerald, GA",
      "lat": 31.715036,
      "lon": -83.2541994
    },
    {
      "id": "flagler_beach_fl",
      "label": "Flagler Beach, FL",
      "lat": 29.4749927,
      "lon": -81.1269982
    },
    {
      "id": "flat_rock_mi",
      "label": "Flat Rock, MI",
      "lat": 42.0964314,
      "lon": -83.2918744
    },
    {
      "id": "flat_rock_nc",
      "label": "Flat Rock, NC",
      "lat": 35.271228,
      "lon": -82.441508
    },
    {
      "id": "fleming_island_fl",
      "label": "Fleming Island, FL",
      "lat": 24.5810655,
      "lon": -81.7963673
    },
    {
      "id": "flemington_mo",
      "label": "Flemington, MO",
      "lat": 37.8047581,
      "lon": -93.5013125
    },
    {
      "id": "flemington_nj",
      "label": "Flemington, NJ",
      "lat": 40.5130953,
      "lon": -74.8591333
    },
    {
      "id": "flint_mi",
      "label": "Flint, MI",
      "lat": 43.0161693,
      "lon": -83.6900211
    },
    {
      "id": "florahome_fl",
      "label": "Florahome, FL",
      "lat": 29.7327446,
      "lon": -81.8834269
    },
    {
      "id": "florence_al",
      "label": "Florence, AL",
      "lat": 34.79981,
      "lon": -87.677251
    },
    {
      "id": "florence_ms",
      "label": "Florence, MS",
      "lat": 32.1534836,
      "lon": -90.1311971
    },
    {
      "id": "florence_sc",
      "label": "Florence, SC",
      "lat": 34.1984435,
      "lon": -79.7671658
    },
    {
      "id": "flowery_branch_ga",
      "label": "Flowery Branch, GA",
      "lat": 34.1851017,
      "lon": -83.9251809
    },
    {
      "id": "floyds_knobs_in",
      "label": "Floyds Knobs, IN",
      "lat": 38.3243841,
      "lon": -85.8735251
    },
    {
      "id": "foley_al",
      "label": "Foley, AL",
      "lat": 30.4065868,
      "lon": -87.6835974
    },
    {
      "id": "fombell_pa",
      "label": "Fombell, PA",
      "lat": 40.8095093,
      "lon": -80.2017277
    },
    {
      "id": "fond_du_lac_wi",
      "label": "Fond Du Lac, WI",
      "lat": 43.7533414,
      "lon": -88.4493796
    },
    {
      "id": "forest_city_nc",
      "label": "Forest City, NC",
      "lat": 35.3337279,
      "lon": -81.8649245
    },
    {
      "id": "forest_hill_md",
      "label": "Forest Hill, MD",
      "lat": 39.5851063,
      "lon": -76.387739
    },
    {
      "id": "forest_lake_mn",
      "label": "Forest Lake, MN",
      "lat": 45.279106,
      "lon": -92.9851629
    },
    {
      "id": "forest_park_ga",
      "label": "Forest Park, GA",
      "lat": 33.6220542,
      "lon": -84.3690918
    },
    {
      "id": "forrest_city_ar",
      "label": "Forrest City, AR",
      "lat": 35.0081474,
      "lon": -90.7898342
    },
    {
      "id": "fort_ann_ny",
      "label": "Fort Ann, NY",
      "lat": 43.4143073,
      "lon": -73.4879808
    },
    {
      "id": "fort_collins_co",
      "label": "Fort Collins, CO",
      "lat": 40.5871782,
      "lon": -105.0770113
    },
    {
      "id": "fort_johnson_la",
      "label": "Fort Johnson, LA",
      "lat": 31.0809734,
      "lon": -93.1998168
    },
    {
      "id": "fort_knox_ky",
      "label": "Fort Knox, KY",
      "lat": 37.8976552,
      "lon": -85.9038521
    },
    {
      "id": "fort_lauderdale_fl",
      "label": "Fort Lauderdale, FL",
      "lat": 26.1223084,
      "lon": -80.1433786
    },
    {
      "id": "fort_liberty_nc",
      "label": "Fort Liberty, NC",
      "lat": 35.140311,
      "lon": -79.1541465
    },
    {
      "id": "fort_lupton_co",
      "label": "Fort Lupton, CO",
      "lat": 40.0847055,
      "lon": -104.813027
    },
    {
      "id": "fort_mccoy_fl",
      "label": "Fort Mccoy, FL",
      "lat": 29.3649734,
      "lon": -81.9670322
    },
    {
      "id": "fort_mill_sc",
      "label": "Fort Mill, SC",
      "lat": 35.0073697,
      "lon": -80.9450759
    },
    {
      "id": "fort_mitchell_kentucky",
      "label": "Fort Mitchell, KENTUCKY",
      "lat": 39.0595047,
      "lon": -84.5474432
    },
    {
      "id": "fort_moore_ga",
      "label": "Fort Moore, GA",
      "lat": 32.3944605,
      "lon": -84.8062645
    },
    {
      "id": "fort_myers_fl",
      "label": "Fort Myers, FL",
      "lat": 26.640628,
      "lon": -81.8723084
    },
    {
      "id": "fort_novosel_al",
      "label": "Fort Novosel, AL",
      "lat": 31.4514071,
      "lon": -85.7839347
    },
    {
      "id": "fort_oglethorpe_ga",
      "label": "Fort Oglethorpe, GA",
      "lat": 34.9499947,
      "lon": -85.2456607
    },
    {
      "id": "fort_pierce_fl",
      "label": "Fort Pierce, FL",
      "lat": 27.4467056,
      "lon": -80.3256056
    },
    {
      "id": "fort_smith_ar",
      "label": "Fort Smith, AR",
      "lat": 35.3880338,
      "lon": -94.4265011
    },
    {
      "id": "fort_stewart_ga",
      "label": "Fort Stewart, GA",
      "lat": 31.884561,
      "lon": -81.6155936
    },
    {
      "id": "fort_valley_ga",
      "label": "Fort Valley, GA",
      "lat": 32.5537585,
      "lon": -83.8874084
    },
    {
      "id": "fort_walton_beach_fl",
      "label": "Fort Walton Beach, FL",
      "lat": 30.4057552,
      "lon": -86.618842
    },
    {
      "id": "fort_wayne_in",
      "label": "Fort Wayne, IN",
      "lat": 41.0799898,
      "lon": -85.1386015
    },
    {
      "id": "fort_white_fl",
      "label": "Fort White, FL",
      "lat": 29.9232908,
      "lon": -82.7137327
    },
    {
      "id": "fort_worth_tx",
      "label": "Fort Worth, TX",
      "lat": 32.753177,
      "lon": -97.3327459
    },
    {
      "id": "fortville_in",
      "label": "Fortville, IN",
      "lat": 39.9322625,
      "lon": -85.8480354
    },
    {
      "id": "forty_fort_pennsylvania",
      "label": "Forty Fort, PENNSYLVANIA",
      "lat": 41.2789699,
      "lon": -75.8782519
    },
    {
      "id": "fountain_hills_az",
      "label": "Fountain Hills, AZ",
      "lat": 33.6117105,
      "lon": -111.717361
    },
    {
      "id": "fountain_inn_sc",
      "label": "Fountain Inn, SC",
      "lat": 34.6925263,
      "lon": -82.1987922
    },
    {
      "id": "fountain_fl",
      "label": "Fountain, FL",
      "lat": 30.4788051,
      "lon": -85.4196476
    },
    {
      "id": "frankfort_ky",
      "label": "Frankfort, KY",
      "lat": 38.2009055,
      "lon": -84.8732836
    },
    {
      "id": "franklin_ga",
      "label": "Franklin, GA",
      "lat": 34.3678642,
      "lon": -83.2156575
    },
    {
      "id": "franklin_ky",
      "label": "Franklin, KY",
      "lat": 38.2520423,
      "lon": -84.8633812
    },
    {
      "id": "franklin_nc",
      "label": "Franklin, NC",
      "lat": 36.1028596,
      "lon": -78.2787229
    },
    {
      "id": "franklin_oh",
      "label": "Franklin, OH",
      "lat": 39.5589474,
      "lon": -84.3041074
    },
    {
      "id": "franklin_tn",
      "label": "Franklin, TN",
      "lat": 35.925206,
      "lon": -86.8689419
    },
    {
      "id": "franklin_va",
      "label": "Franklin, VA",
      "lat": 37.0527719,
      "lon": -79.8813093
    },
    {
      "id": "fredericksburg_va",
      "label": "Fredericksburg, VA",
      "lat": 38.3031837,
      "lon": -77.4605399
    },
    {
      "id": "freeburg_il",
      "label": "Freeburg, IL",
      "lat": 38.4275865,
      "lon": -89.9137592
    },
    {
      "id": "freehold_nj",
      "label": "Freehold, NJ",
      "lat": 40.2601096,
      "lon": -74.2737573
    },
    {
      "id": "freeport_fl",
      "label": "Freeport, FL",
      "lat": 30.4982516,
      "lon": -86.1360517
    },