[
  {
    "id": "grandville_mi",
    "label": "• Grandville, MI",
    "lat": 42.909598,
    "lon": -85.7630956
  },
  {
    "id": "85207_az",
    "label": "85207, AZ",
    "lat": 33.4371594,
    "lon": -111.6316122
  },
  {
    "id": "abbeville_al",
    "label": "Abbeville, AL",
    "lat": 31.5702088,
    "lon": -85.2503315
  },
  {
    "id": "abbeville_la",
    "label": "Abbeville, LA",
    "lat": 29.9746502,
    "lon": -92.1342921
  },
  {
    "id": "abbeville_sc",
    "label": "Abbeville, SC",
    "lat": 34.2264946,
    "lon": -82.4364036
  },
  {
    "id": "aberdeen_ms",
    "label": "Aberdeen, MS",
    "lat": 33.8251139,
    "lon": -88.5436553
  },
  {
    "id": "abilene_ks",
    "label": "Abilene, KS",
    "lat": 38.917252,
    "lon": -97.21377
  },
  {
    "id": "abingdon_va",
    "label": "Abingdon, VA",
    "lat": 36.7104018,
    "lon": -81.975249
  },
  {
    "id": "ackworth_ia",
    "label": "Ackworth, IA",
    "lat": 41.366012,
    "lon": -93.4734697
  },
  {
    "id": "acworth_ga",
    "label": "Acworth, GA",
    "lat": 34.0659329,
    "lon": -84.6768796
  },
  {
    "id": "ada_mn",
    "label": "Ada, MN",
    "lat": 47.299689,
    "lon": -96.5153463
  },
  {
    "id": "adairsville_ga",
    "label": "Adairsville, GA",
    "lat": 34.3683267,
    "lon": -84.9349057
  },
  {
    "id": "adams_tn",
    "label": "Adams, TN",
    "lat": 36.5823718,
    "lon": -87.0655751
  },
  {
    "id": "adamsville_al",
    "label": "Adamsville, AL",
    "lat": 33.6009389,
    "lon": -86.9561059
  },
  {
    "id": "adamsville_tn",
    "label": "Adamsville, TN",
    "lat": 35.2359146,
    "lon": -88.3905965
  },
  {
    "id": "addison_il",
    "label": "Addison, IL",
    "lat": 41.931696,
    "lon": -87.9889556
  },
  {
    "id": "adel_ga",
    "label": "Adel, GA",
    "lat": 31.1371358,
    "lon": -83.4234936
  },
  {
    "id": "adelaide_sa",
    "label": "Adelaide, SA",
    "lat": -34.9281805,
    "lon": 138.5999312
  },
  {
    "id": "adrian_mi",
    "label": "Adrian, MI",
    "lat": 41.8975152,
    "lon": -84.0373054
  },
  {
    "id": "advance_nc",
    "label": "Advance, NC",
    "lat": 35.9412851,
    "lon": -80.4096455
  },
  {
    "id": "agawam_ma",
    "label": "Agawam, MA",
    "lat": 42.0688621,
    "lon": -72.6151604
  },
  {
    "id": "aiken_sc",
    "label": "Aiken, SC",
    "lat": 33.5723191,
    "lon": -81.6182086
  },
  {
    "id": "akron_co",
    "label": "Akron, CO",
    "lat": 40.1605374,
    "lon": -103.214384
  },
  {
    "id": "akron_ny",
    "label": "Akron, NY",
    "lat": 43.0208924,
    "lon": -78.4953015
  },
  {
    "id": "akron_oh",
    "label": "Akron, OH",
    "lat": 41.083064,
    "lon": -81.518485
  },
  {
    "id": "alabaster_al",
    "label": "Alabaster, AL",
    "lat": 33.2442813,
    "lon": -86.8163773
  },
  {
    "id": "alachua_fl",
    "label": "Alachua, FL",
    "lat": 29.675568,
    "lon": -82.3640109
  },
  {
    "id": "alameda_ca",
    "label": "Alameda, CA",
    "lat": 37.6090291,
    "lon": -121.899142
  },
  {
    "id": "alamo_california",
    "label": "Alamo, CALIFORNIA",
    "lat": 37.8551351,
    "lon": -122.0066891
  },
  {
    "id": "alamo_tx",
    "label": "Alamo, TX",
    "lat": 26.1836854,
    "lon": -98.1230638
  },
  {
    "id": "albany_ga",
    "label": "Albany, GA",
    "lat": 31.5782062,
    "lon": -84.1556809
  },
  {
    "id": "albany_ky",
    "label": "Albany, KY",
    "lat": 36.6917878,
    "lon": -85.1353856
  },
  {
    "id": "albany_la",
    "label": "Albany, LA",
    "lat": 30.5043578,
    "lon": -90.5823138
  },
  {
    "id": "albany_ny",
    "label": "Albany, NY",
    "lat": 42.6511674,
    "lon": -73.754968
  },
  {
    "id": "albemarle_nc",
    "label": "Albemarle, NC",
    "lat": 35.3501426,
    "lon": -80.2000578
  },
  {
    "id": "albertville_al",
    "label": "Albertville, AL",
    "lat": 34.2675937,
    "lon": -86.2088669
  },
  {
    "id": "albia_ia",
    "label": "Albia, IA",
    "lat": 41.0264561,
    "lon": -92.8075217
  },
  {
    "id": "albuquerque_nm",
    "label": "Albuquerque, NM",
    "lat": 35.0841034,
    "lon": -106.650985
  },
  {
    "id": "alcoa_tn",
    "label": "Alcoa, TN",
    "lat": 35.7847143,
    "lon": -83.986599
  },
  {
    "id": "alcolu_sc",
    "label": "Alcolu, SC",
    "lat": 33.7511805,
    "lon": -80.2127365
  },
  {
    "id": "alexander_city_al",
    "label": "Alexander City, AL",
    "lat": 32.944012,
    "lon": -85.9538532
  },
  {
    "id": "alexander_ia",
    "label": "Alexander, IA",
    "lat": 42.8060488,
    "lon": -93.4765653
  },
  {
    "id": "alexandria_ky",
    "label": "Alexandria, KY",
    "lat": 38.9595078,
    "lon": -84.3879946
  },
  {
    "id": "alexandria_la",
    "label": "Alexandria, LA",
    "lat": 31.3119463,
    "lon": -92.4453558
  },
  {
    "id": "alexandria_mn",
    "label": "Alexandria, MN",
    "lat": 45.8835101,
    "lon": -95.3745015
  },
  {
    "id": "alexandria_va",
    "label": "Alexandria, VA",
    "lat": 38.8051095,
    "lon": -77.0470229
  },
  {
    "id": "alford_fl",
    "label": "Alford, FL",
    "lat": 30.6936569,
    "lon": -85.3918968
  },
  {
    "id": "algonquin_il",
    "label": "Algonquin, IL",
    "lat": 42.1655801,
    "lon": -88.2942493
  },
  {
    "id": "algonquin_illinois",
    "label": "Algonquin, ILLINOIS",
    "lat": 42.1655801,
    "lon": -88.2942493
  },
  {
    "id": "aliquippa_pa",
    "label": "Aliquippa, PA",
    "lat": 40.6102386,
    "lon": -80.267726
  },
  {
    "id": "allen_park_mi",
    "label": "Allen Park, MI",
    "lat": 42.2595071,
    "lon": -83.2107671
  },
  {
    "id": "allenhurst_ga",
    "label": "Allenhurst, GA",
    "lat": 31.7841014,
    "lon": -81.6076117
  },
  {
    "id": "allentown_pa",
    "label": "Allentown, PA",
    "lat": 40.6022552,
    "lon": -75.4716115
  },
  {
    "id": "alliance_ne",
    "label": "Alliance, NE",
    "lat": 42.0971897,
    "lon": -102.8707145
  },
  {
    "id": "almere_fl",
    "label": "Almere, FL",
    "lat": 52.3705038,
    "lon": 5.2185859
  },
  {
    "id": "almo_ky",
    "label": "Almo, KY",
    "lat": 36.6947773,
    "lon": -88.2783694
  },
  {
    "id": "alpharetta_ga",
    "label": "Alpharetta, GA",
    "lat": 34.0755962,
    "lon": -84.2945964
  },
  {
    "id": "alpine_california",
    "label": "Alpine, CALIFORNIA",
    "lat": 38.5893934,
    "lon": -119.8345013
  },
  {
    "id": "alpine_tn",
    "label": "Alpine, TN",
    "lat": 36.3947865,
    "lon": -85.2169065
  },
  {
    "id": "altamonte_springs_fl",
    "label": "Altamonte Springs, FL",
    "lat": 28.6619154,
    "lon": -81.3885899
  },
  {
    "id": "alto_ga",
    "label": "Alto, GA",
    "lat": 34.4631965,
    "lon": -83.5739356
  },
  {
    "id": "altoona_al",
    "label": "Altoona, AL",
    "lat": 34.025609,
    "lon": -86.3258835
  },
  {
    "id": "altoona_fl",
    "label": "Altoona, FL",
    "lat": 28.9677745,
    "lon": -81.6478223
  },
  {
    "id": "altoona_pa",
    "label": "Altoona, PA",
    "lat": 40.5193586,
    "lon": -78.3968299
  },
  {
    "id": "altrincham_cheshire",
    "label": "Altrincham, CHESHIRE",
    "lat": 53.3855867,
    "lon": -2.3504046
  },
  {
    "id": "alvarado_tx",
    "label": "Alvarado, TX",
    "lat": 32.4095565,
    "lon": -97.2102881
  },
  {
    "id": "alvaton_ky",
    "label": "Alvaton, KY",
    "lat": 36.8733754,
    "lon": -86.3530456
  },
  {
    "id": "amarillo_tx",
    "label": "Amarillo, TX",
    "lat": 35.20729,
    "lon": -101.8371192
  },
  {
    "id": "ambridge_pa",
    "label": "Ambridge, PA",
    "lat": 40.586438,
    "lon": -80.2273615
  },
  {
    "id": "americus_ga",
    "label": "Americus, GA",
    "lat": 32.0723862,
    "lon": -84.2326876
  },
  {
    "id": "ames_ia",
    "label": "Ames, IA",
    "lat": 42.0267567,
    "lon": -93.6170448
  },
  {
    "id": "amesbury_ma",
    "label": "Amesbury, MA",
    "lat": 42.8579536,
    "lon": -70.9300921
  },
  {
    "id": "amherst_ohio",
    "label": "Amherst, OHIO",
    "lat": 41.3978217,
    "lon": -82.2223775
  },
  {
    "id": "amity_ar",
    "label": "Amity, AR",
    "lat": 34.2648201,
    "lon": -93.4610173
  },
  {
    "id": "amsterdam_ny",
    "label": "Amsterdam, NY",
    "lat": 42.9362232,
    "lon": -74.1905821
  },
  {
    "id": "anacortes_wa",
    "label": "Anacortes, WA",
    "lat": 48.516844,
    "lon": -122.6125717
  },
  {
    "id": "anacortes_washington",
    "label": "Anacortes, WASHINGTON",
    "lat": 48.516844,
    "lon": -122.6125717
  },
  {
    "id": "anaheim_ca",
    "label": "Anaheim, CA",
    "lat": 33.8347516,
    "lon": -117.911732
  },
  {
    "id": "anahuac_tx",
    "label": "Anahuac, TX",
    "lat": 29.7713308,
    "lon": -94.6785092
  },
  {
    "id": "anchorage_ak",
    "label": "Anchorage, AK",
    "lat": 61.2163129,
    "lon": -149.894852
  },
  {
    "id": "andalusia_al",
    "label": "Andalusia, AL",
    "lat": 31.3080607,
    "lon": -86.482424
  },
  {
    "id": "anderson_sc",
    "label": "Anderson, SC",
    "lat": 34.5258335,
    "lon": -82.652962
  },
  {
    "id": "andersonville_tn",
    "label": "Andersonville, TN",
    "lat": 36.1961573,
    "lon": -84.0329389
  },
  {
    "id": "andover_mn",
    "label": "Andover, MN",
    "lat": 45.2332985,
    "lon": -93.2913405
  },
  {
    "id": "angie_la",
    "label": "Angie, LA",
    "lat": 30.9665729,
    "lon": -89.8095208
  },
  {
    "id": "ankeny_ia",
    "label": "Ankeny, IA",
    "lat": 41.7320796,
    "lon": -93.605092
  },
  {
    "id": "ann_arbor_mi",
    "label": "Ann Arbor, MI",
    "lat": 42.2813722,
    "lon": -83.7484616
  },
  {
    "id": "annapolis_md",
    "label": "Annapolis, MD",
    "lat": 38.9786401,
    "lon": -76.492786
  },
  {
    "id": "anniston_al",
    "label": "Anniston, AL",
    "lat": 33.6624824,
    "lon": -85.8283224
  },
  {
    "id": "anniston_alabama",
    "label": "Anniston, ALABAMA",
    "lat": 33.6624824,
    "lon": -85.8283224
  },
  {
    "id": "anoka_mn",
    "label": "Anoka, MN",
    "lat": 45.2710195,
    "lon": -93.2827625
  },
  {
    "id": "antelope_ca",
    "label": "Antelope, CA",
    "lat": 38.7082357,
    "lon": -121.3299513
  },
  {
    "id": "anthony_fl",
    "label": "Anthony, FL",
    "lat": 29.2893282,
    "lon": -82.1118205
  },
  {
    "id": "antioch_tn",
    "label": "Antioch, TN",
    "lat": 36.0600602,
    "lon": -86.6722192
  },
  {
    "id": "apalachicola_fl",
    "label": "Apalachicola, FL",
    "lat": 29.7255084,
    "lon": -84.9827725
  },
  {
    "id": "apeldoorn_ge",
    "label": "Apeldoorn, GE",
    "lat": 52.1795738,
    "lon": 5.9300775
  },
  {
    "id": "apex_nc",
    "label": "Apex, NC",
    "lat": 35.7325352,
    "lon": -78.8505516
  },
  {
    "id": "apison_tn",
    "label": "Apison, TN",
    "lat": 35.0213397,
    "lon": -85.0034027
  },
  {
    "id": "apollo_beach_fl",
    "label": "Apollo Beach, FL",
    "lat": 27.7741547,
    "lon": -82.4062097
  },
  {
    "id": "apopka_fl",
    "label": "Apopka, FL",
    "lat": 28.6732806,
    "lon": -81.5116471
  },
  {
    "id": "apple_valley_ca",
    "label": "Apple Valley, CA",
    "lat": 34.5008311,
    "lon": -117.1858759
  },
  {
    "id": "applegate_ca",
    "label": "Applegate, CA",
    "lat": 39.0008573,
    "lon": -120.9920321
  },
  {
    "id": "appleton_wi",
    "label": "Appleton, WI",
    "lat": 44.2613967,
    "lon": -88.4069744
  },
  {
    "id": "appling_ga",
    "label": "Appling, GA",
    "lat": 31.7771435,
    "lon": -82.2996274
  },
  {
    "id": "arab_al",
    "label": "Arab, AL",
    "lat": 34.3181497,
    "lon": -86.4958219
  },
  {
    "id": "arabi_la",
    "label": "Arabi, LA",
    "lat": 29.9534895,
    "lon": -90.000289
  },
  {
    "id": "arbyrd_mo",
    "label": "Arbyrd, MO",
    "lat": 36.0499107,
    "lon": -90.2395935
  },
  {
    "id": "arcadia_ca",
    "label": "Arcadia, CA",
    "lat": 34.1362075,
    "lon": -118.0401497
  },
  {
    "id": "arcadia_fl",
    "label": "Arcadia, FL",
    "lat": 27.2158826,
    "lon": -81.8584164
  },
  {
    "id": "archdale_nc",
    "label": "Archdale, NC",
    "lat": 35.914581,
    "lon": -79.9719831
  },
  {
    "id": "archer_fl",
    "label": "Archer, FL",
    "lat": 29.5299677,
    "lon": -82.5189969
  },
  {
    "id": "arden_nc",
    "label": "Arden, NC",
    "lat": 35.4661821,
    "lon": -82.5164242
  },
  {
    "id": "aripeka_fl",
    "label": "Aripeka, FL",
    "lat": 28.4317572,
    "lon": -82.664536
  },
  {
    "id": "ariton_al",
    "label": "Ariton, AL",
    "lat": 31.6001655,
    "lon": -85.7188298
  },
  {
    "id": "arkadelphia_ar",
    "label": "Arkadelphia, AR",
    "lat": 34.1209292,
    "lon": -93.053784
  },
  {
    "id": "arley_al",
    "label": "Arley, AL",
    "lat": 34.0800419,
    "lon": -87.2125687
  },
  {
    "id": "arlington_heights_il",
    "label": "Arlington Heights, IL",
    "lat": 42.0811563,
    "lon": -87.9802164
  },
  {
    "id": "arlington_tn",
    "label": "Arlington, TN",
    "lat": 35.2964487,
    "lon": -89.6617313
  },
  {
    "id": "arlington_tx",
    "label": "Arlington, TX",
    "lat": 32.7355816,
    "lon": -97.1071186
  },
  {
    "id": "arlington_va",
    "label": "Arlington, VA",
    "lat": 38.8769326,
    "lon": -77.0893094
  },
  {
    "id": "arlington_wa",
    "label": "Arlington, WA",
    "lat": 48.1810957,
    "lon": -122.1389548
  },
  {
    "id": "arnold_mo",
    "label": "Arnold, MO",
    "lat": 38.4226711,
    "lon": -90.3758287
  },
  {
    "id": "arrington_tn",
    "label": "Arrington, TN",
    "lat": 35.8676656,
    "lon": -86.7096095
  },
  {
    "id": "arvada_co",
    "label": "Arvada, CO",
    "lat": 39.8005505,
    "lon": -105.0811573
  },
  {
    "id": "arvada_colorado",
    "label": "Arvada, COLORADO",
    "lat": 39.8005505,
    "lon": -105.0811573
  },
  {
    "id": "ash_flat_ar",
    "label": "Ash Flat, AR",
    "lat": 36.2298765,
    "lon": -91.6061148
  },
  {
    "id": "asheboro_nc",
    "label": "Asheboro, NC",
    "lat": 35.7079146,
    "lon": -79.8136446
  },
  {
    "id": "asheville_area_nc",
    "label": "Asheville Area, NC",
    "lat": 35.568396,
    "lon": -82.5482693
  },
  {
    "id": "asheville_nc",
    "label": "Asheville, NC",
    "lat": 35.595363,
    "lon": -82.5508407
  },
  {
    "id": "ashford_al",
    "label": "Ashford, AL",
    "lat": 31.1838319,
    "lon": -85.2358439
  },
  {
    "id": "ashland_city_tn",
    "label": "Ashland City, TN",
    "lat": 36.2742207,
    "lon": -87.0641699
  },
  {
    "id": "ashland_al",
    "label": "Ashland, AL",
    "lat": 33.2737256,
    "lon": -85.8360741
  },
  {
    "id": "ashland_ky",
    "label": "Ashland, KY",
    "lat": 38.4784144,
    "lon": -82.6379387
  },
  {
    "id": "ashland_mo",
    "label": "Ashland, MO",
    "lat": 38.7744802,
    "lon": -92.2571304
  },
  {
    "id": "ashland_ms",
    "label": "Ashland, MS",
    "lat": 34.8329021,
    "lon": -89.1756896
  },
  {
    "id": "ashland_ne",
    "label": "Ashland, NE",
    "lat": 41.0391711,
    "lon": -96.3683917
  },
  {
    "id": "ashland_oh",
    "label": "Ashland, OH",
    "lat": 40.7887367,
    "lon": -82.2360391
  },
  {
    "id": "ashland_or",
    "label": "Ashland, OR",
    "lat": 42.1972487,
    "lon": -122.7153995
  },
  {
    "id": "ashland_oregon",
    "label": "Ashland, OREGON",
    "lat": 42.1972487,
    "lon": -122.7153995
  },
  {
    "id": "ashland_wi",
    "label": "Ashland, WI",
    "lat": 46.2062319,
    "lon": -90.6802594
  },
  {
    "id": "asientos_ags",
    "label": "Asientos, AGS",
    "lat": 22.1321072,
    "lon": -102.0952559
  },
  {
    "id": "assen_dr",
    "label": "Assen, DR",
    "lat": 52.997225,
    "lon": 6.5506458
  },
  {
    "id": "assonet_ma",
    "label": "Assonet, MA",
    "lat": 41.7954467,
    "lon": -71.0677281
  },
  {
    "id": "astatula_fl",
    "label": "Astatula, FL",
    "lat": 28.7097167,
    "lon": -81.7328542
  },
  {
    "id": "astor_fl",
    "label": "Astor, FL",
    "lat": 29.164031,
    "lon": -81.5359119
  },
  {
    "id": "astoria_or",
    "label": "Astoria, OR",
    "lat": 46.1882007,
    "lon": -123.8319802
  },
  {
    "id": "atascadero_california",
    "label": "Atascadero, CALIFORNIA",
    "lat": 35.4894169,
    "lon": -120.6707255
  },
  {
    "id": "athens_al",
    "label": "Athens, AL",
    "lat": 34.8045487,
    "lon": -86.9711698
  },
  {
    "id": "athens_ga",
    "label": "Athens, GA",
    "lat": 33.9597677,
    "lon": -83.376398
  },
  {
    "id": "athens_oh",
    "label": "Athens, OH",
    "lat": 39.3575616,
    "lon": -82.0609557
  },
  {
    "id": "athens_tn",
    "label": "Athens, TN",
    "lat": 35.4428864,
    "lon": -84.5930113
  },
  {
    "id": "atkinson_il",
    "label": "Atkinson, IL",
    "lat": 41.4208678,
    "lon": -90.0151121
  },
  {
    "id": "atkinson_nh",
    "label": "Atkinson, NH",
    "lat": 42.8384221,
    "lon": -71.1470037
  },
  {
    "id": "atlanta_area_ga",
    "label": "Atlanta Area, GA",
    "lat": 33.9185013,
    "lon": -84.3596256
  },
  {
    "id": "atlanta_ga",
    "label": "Atlanta, GA",
    "lat": 33.7544657,
    "lon": -84.3898151
  },
  {
    "id": "atlanta_georgia",
    "label": "Atlanta, GEORGIA",
    "lat": 33.7544657,
    "lon": -84.3898151
  },
  {
    "id": "atlanta_mi",
    "label": "Atlanta, MI",
    "lat": 45.0047575,
    "lon": -84.1519702
  },
  {
    "id": "atlantic_beach_fl",
    "label": "Atlantic Beach, FL",
    "lat": 30.3344077,
    "lon": -81.398696
  },
  {
    "id": "atlantic_city_nj",
    "label": "Atlantic City, NJ",
    "lat": 39.3642852,
    "lon": -74.4229351
  },
  {
    "id": "atmore_al",
    "label": "Atmore, AL",
    "lat": 31.0237921,
    "lon": -87.4938708
  },
  {
    "id": "atoka_tn",
    "label": "Atoka, TN",
    "lat": 35.4411945,
    "lon": -89.7781379
  },
  {
    "id": "attalla_al",
    "label": "Attalla, AL",
    "lat": 34.0217639,
    "lon": -86.0885851
  },
  {
    "id": "attleboro_ma",
    "label": "Attleboro, MA",
    "lat": 41.9439695,
    "lon": -71.2804301
  },
  {
    "id": "atwater_oh",
    "label": "Atwater, OH",
    "lat": 41.024134,
    "lon": -81.1648959
  },
  {
    "id": "auburn_hills_mi",
    "label": "Auburn Hills, MI",
    "lat": 42.6875323,
    "lon": -83.2341028
  },
  {
    "id": "auburn_al",
    "label": "Auburn, AL",
    "lat": 32.6098566,
    "lon": -85.4807825
  },
  {
    "id": "auburn_ca",
    "label": "Auburn, CA",
    "lat": 38.8945939,
    "lon": -121.0739897
  },
  {
    "id": "auburn_ga",
    "label": "Auburn, GA",
    "lat": 34.0136673,
    "lon": -83.8273406
  },
  {
    "id": "auburn_me",
    "label": "Auburn, ME",
    "lat": 44.0965374,
    "lon": -70.2249487
  },
  {
    "id": "auburn_nh",
    "label": "Auburn, NH",
    "lat": 43.0045289,
    "lon": -71.348398
  },
  {
    "id": "auburn_wa",
    "label": "Auburn, WA",
    "lat": 47.3075369,
    "lon": -122.2301808
  },
  {
    "id": "auburndale_fl",
    "label": "Auburndale, FL",
    "lat": 28.0653422,
    "lon": -81.7888642
  },
  {
    "id": "auckland_auckland_city",
    "label": "Auckland, AUCKLAND CITY",
    "lat": -36.852095,
    "lon": 174.7631803
  },
  {
    "id": "auckland_nz",
    "label": "Auckland, NZ",
    "lat": -36.852095,
    "lon": 174.7631803
  },
  {
    "id": "augusta_ga",
    "label": "Augusta, GA",
    "lat": 33.4709714,
    "lon": -81.9748429
  },
  {
    "id": "aurora_co",
    "label": "Aurora, CO",
    "lat": 39.7405111,
    "lon": -104.830994
  },
  {
    "id": "aurora_il",
    "label": "Aurora, IL",
    "lat": 41.7571701,
    "lon": -88.3147539
  },
  {
    "id": "aurora_in",
    "label": "Aurora, IN",
    "lat": 39.0570022,
    "lon": -84.9013402
  },
  {
    "id": "aurora_oh",
    "label": "Aurora, OH",
    "lat": 41.317555,
    "lon": -81.345386
  },
  {
    "id": "aurora_on",
    "label": "Aurora, ON",
    "lat": 43.99973,
    "lon": -79.467545
  },
  {
    "id": "aurora_sd",
    "label": "Aurora, SD",
    "lat": 43.6963371,
    "lon": -98.5722461
  },
  {
    "id": "austell_ga",
    "label": "Austell, GA",
    "lat": 33.8126059,
    "lon": -84.6343783
  },
  {
    "id": "austin_tx",
    "label": "Austin, TX",
    "lat": 30.2711286,
    "lon": -97.7436995
  },
  {
    "id": "aventura_fl",
    "label": "Aventura, FL",
    "lat": 25.9564812,
    "lon": -80.1392121
  },
  {
    "id": "avon_park_fl",
    "label": "Avon Park, FL",
    "lat": 27.5960827,
    "lon": -81.5060858
  },
  {
    "id": "avon_in",
    "label": "Avon, IN",
    "lat": 39.7628227,
    "lon": -86.3997168
  },
  {
    "id": "avon_ma",
    "label": "Avon, MA",
    "lat": 42.1326216,
    "lon": -71.0401255
  },
  {
    "id": "avon_mn",
    "label": "Avon, MN",
    "lat": 45.6091313,
    "lon": -94.4516668
  },
  {
    "id": "avon_oh",
    "label": "Avon, OH",
    "lat": 41.4516512,
    "lon": -82.0350598
  },
  {
    "id": "avondale_az",
    "label": "Avondale, AZ",
    "lat": 33.4355977,
    "lon": -112.349602
  },
  {
    "id": "axis_al",
    "label": "Axis, AL",
    "lat": 30.9309768,
    "lon": -88.018225
  },
  {
    "id": "aynor_sc",
    "label": "Aynor, SC",
    "lat": 33.9998881,
    "lon": -79.1994874
  },
  {
    "id": "bacolod_city_ph06",
    "label": "Bacolod City, PH-06",
    "lat": 10.6722145,
    "lon": 122.9443594
  },
  {
    "id": "baconton_ga",
    "label": "Baconton, GA",
    "lat": 31.3776288,
    "lon": -84.1610382
  },
  {
    "id": "baden_pa",
    "label": "Baden, PA",
    "lat": 40.6350668,
    "lon": -80.2281159
  },
  {
    "id": "bainbridge_ga",
    "label": "Bainbridge, GA",
    "lat": 30.9038252,
    "lon": -84.5754768
  },
  {
    "id": "baker_fl",
    "label": "Baker, FL",
    "lat": 30.3143459,
    "lon": -82.2847163
  },
  {
    "id": "baker_la",
    "label": "Baker, LA",
    "lat": 30.5882429,
    "lon": -91.168163
  },
  {
    "id": "bakersfield_ca",
    "label": "Bakersfield, CA",
    "lat": 35.3738712,
    "lon": -119.019463
  },
  {
    "id": "bakersville_nc",
    "label": "Bakersville, NC",
    "lat": 36.0156735,
    "lon": -82.1587351
  },
  {
    "id": "balch_springs_tx",
    "label": "Balch Springs, TX",
    "lat": 32.7287413,
    "lon": -96.6227714
  },
  {
    "id": "bald_knob_ar",
    "label": "Bald Knob, AR",
    "lat": 35.3098066,
    "lon": -91.5679114
  },
  {
    "id": "baldwin_ga",
    "label": "Baldwin, GA",
    "lat": 33.0869398,
    "lon": -83.2633216
  },
  {
    "id": "ball_ground_ga",
    "label": "Ball Ground, GA",
    "lat": 34.3382257,
    "lon": -84.3765714
  },
  {
    "id": "ballston_spa_ny",
    "label": "Ballston Spa, NY",
    "lat": 43.0100155,
    "lon": -73.8502957
  },
  {
    "id": "ballwin_mo",
    "label": "Ballwin, MO",
    "lat": 38.5961694,
    "lon": -90.5387318
  },
  {
    "id": "balt_md",
    "label": "Balt, MD",
    "lat": 47.3323523,
    "lon": 27.8776868
  },
  {
    "id": "baltimore_maryland",
    "label": "Baltimore, MARYLAND",
    "lat": 39.2908816,
    "lon": -76.610759
  },
  {
    "id": "baltimore_md",
    "label": "Baltimore, MD",
    "lat": 39.2908816,
    "lon": -76.610759
  },
  {
    "id": "banner_elk_nc",
    "label": "Banner Elk, NC",
    "lat": 36.1633342,
    "lon": -81.8719013
  },
  {
    "id": "banner_ky",
    "label": "Banner, KY",
    "lat": 37.5992651,
    "lon": -82.7012684
  },
  {
    "id": "banning_ca",
    "label": "Banning, CA",
    "lat": 33.9255685,
    "lon": -116.875289
  },
  {
    "id": "barleduc_ges",
    "label": "Bar-le-duc, GES",
    "lat": 48.7712673,
    "lon": 5.1623805
  },
  {
    "id": "barberton_oh",
    "label": "Barberton, OH",
    "lat": 41.012833,
    "lon": -81.6051221
  },
  {
    "id": "barboursville_wv",
    "label": "Barboursville, WV",
    "lat": 38.4095298,
    "lon": -82.2945923
  },
  {
    "id": "barcelona_ct",
    "label": "Barcelona, CT",
    "lat": 41.3825802,
    "lon": 2.177073
  },
  {
    "id": "bardstown_ky",
    "label": "Bardstown, KY",
    "lat": 37.8092463,
    "lon": -85.4669015
  },
  {
    "id": "bardwell_ky",
    "label": "Bardwell, KY",
    "lat": 36.8706111,
    "lon": -89.0097869
  },
  {
    "id": "barksdale_air_force_base_la",
    "label": "Barksdale Air Force Base, LA",
    "lat": 32.497523,
    "lon": -93.6108428
  },
  {
    "id": "barnesville_ga",
    "label": "Barnesville, GA",
    "lat": 33.0545709,
    "lon": -84.1557496
  },
  {
    "id": "barnhart_mo",
    "label": "Barnhart, MO",
    "lat": 38.3397205,
    "lon": -90.4067425
  },
  {
    "id": "barnstable_ma",
    "label": "Barnstable, MA",
    "lat": 41.7016936,
    "lon": -70.3036163
  },
  {
    "id": "barrington_il",
    "label": "Barrington, IL",
    "lat": 42.1539141,
    "lon": -88.1361888
  },
  {
    "id": "barrington_nh",
    "label": "Barrington, NH",
    "lat": 43.223191,
    "lon": -71.047211
  },
  {
    "id": "barrington_ri",
    "label": "Barrington, RI",
    "lat": 41.7407661,
    "lon": -71.3084633
  },
  {
    "id": "bartlett_il",
    "label": "Bartlett, IL",
    "lat": 41.9908485,
    "lon": -88.1850028
  },
  {
    "id": "bartlett_tennessee",
    "label": "Bartlett, TENNESSEE",
    "lat": 35.2045329,
    "lon": -89.8739753
  },
  {
    "id": "bartlett_tn",
    "label": "Bartlett, TN",
    "lat": 35.2045329,
    "lon": -89.8739753
  },
  {
    "id": "bartow_fl",
    "label": "Bartow, FL",
    "lat": 27.8964384,
    "lon": -81.843323
  },
  {
    "id": "barwick_ga",
    "label": "Barwick, GA",
    "lat": 30.8930659,
    "lon": -83.7392756
  },
  {
    "id": "barxeta_vc",
    "label": "Barxeta, VC",
    "lat": 39.0225353,
    "lon": -0.4165167
  },
  {
    "id": "basalt_co",
    "label": "Basalt, CO",
    "lat": 39.3688731,
    "lon": -107.032824
  },
  {
    "id": "bassett_va",
    "label": "Bassett, VA",
    "lat": 36.761832,
    "lon": -79.9873356
  },
  {
    "id": "bassfield_ms",
    "label": "Bassfield, MS",
    "lat": 31.4965591,
    "lon": -89.7395195
  },
  {
    "id": "bastrop_la",
    "label": "Bastrop, LA",
    "lat": 32.7777896,
    "lon": -91.9138683
  },
  {
    "id": "batavia_il",
    "label": "Batavia, IL",
    "lat": 41.8500284,
    "lon": -88.3125738
  },
  {
    "id": "batavia_oh",
    "label": "Batavia, OH",
    "lat": 39.0770072,
    "lon": -84.1768795
  },
  {
    "id": "batesburgleesville_sc",
    "label": "Batesburg-leesville, SC",
    "lat": 33.9101425,
    "lon": -81.5373261
  },
  {
    "id": "batesville_ar",
    "label": "Batesville, AR",
    "lat": 35.7708144,
    "lon": -91.6531128
  },
  {
    "id": "batley_west_yorkshire",
    "label": "Batley, WEST YORKSHIRE",
    "lat": 53.716564,
    "lon": -1.6363856
  },
  {
    "id": "baton_rouge_la",
    "label": "Baton Rouge, LA",
    "lat": 30.4494155,
    "lon": -91.1869659
  },
  {
    "id": "battle_creek_mi",
    "label": "Battle Creek, MI",
    "lat": 42.3192548,
    "lon": -85.1824269
  },
  {
    "id": "baxley_ga",
    "label": "Baxley, GA",
    "lat": 31.7773202,
    "lon": -82.3490533
  },
  {
    "id": "baxter_tn",
    "label": "Baxter, TN",
    "lat": 36.1537731,
    "lon": -85.643399
  },
  {
    "id": "bay_city_mi",
    "label": "Bay City, MI",
    "lat": 43.5962107,
    "lon": -83.8881711
  },
  {
    "id": "bay_harbor_islands_fl",
    "label": "Bay Harbor Islands, FL",
    "lat": 25.8875948,
    "lon": -80.1311564
  },
  {
    "id": "bay_minette_al",
    "label": "Bay Minette, AL",
    "lat": 30.8829628,
    "lon": -87.7730474
  },
  {
    "id": "bay_shore_ny",
    "label": "Bay Shore, NY",
    "lat": 40.7276525,
    "lon": -73.2435218
  },
  {
    "id": "bay_st_louis_ms",
    "label": "Bay St Louis, MS",
    "lat": 30.3105666,
    "lon": -89.3275482
  },
  {
    "id": "bay_village_oh",
    "label": "Bay Village, OH",
    "lat": 41.484996,
    "lon": -81.9208434
  },
  {
    "id": "bayamon_pr",
    "label": "Bayamon, PR",
    "lat": 18.3449582,
    "lon": -66.168374
  },
  {
    "id": "bayport_ny",
    "label": "Bayport, NY",
    "lat": 40.74885,
    "lon": -73.052214
  },
  {
    "id": "baytown_tx",
    "label": "Baytown, TX",
    "lat": 29.7355047,
    "lon": -94.9774274
  },
  {
    "id": "bayville_nj",
    "label": "Bayville, NJ",
    "lat": 39.9092852,
    "lon": -74.1548614
  },
  {
    "id": "bean_station_tn",
    "label": "Bean Station, TN",
    "lat": 36.3436559,
    "lon": -83.2840492
  },
  {
    "id": "bear_delaware",
    "label": "Bear, DELAWARE",
    "lat": 39.6292788,
    "lon": -75.6582628
  },
  {
    "id": "beattyville_ky",
    "label": "Beattyville, KY",
    "lat": 37.5717526,
    "lon": -83.7068606
  },
  {
    "id": "beaufort_nc",
    "label": "Beaufort, NC",
    "lat": 35.469331,
    "lon": -76.8927522
  },
  {
    "id": "beaufort_sc",
    "label": "Beaufort, SC",
    "lat": 32.3850708,
    "lon": -80.6923169
  },
  {
    "id": "beaumont_ca",
    "label": "Beaumont, CA",
    "lat": 53.3525496,
    "lon": -113.4151434
  },
  {
    "id": "beaumont_tx",
    "label": "Beaumont, TX",
    "lat": 30.0829344,
    "lon": -94.0984277
  },
  {
    "id": "beaver_dam_ky",
    "label": "Beaver Dam, KY",
    "lat": 37.4019918,
    "lon": -86.8758256
  },
  {
    "id": "beaver_dam_wi",
    "label": "Beaver Dam, WI",
    "lat": 43.4577692,
    "lon": -88.837329
  },
  {
    "id": "beaver_falls_pa",
    "label": "Beaver Falls, PA",
    "lat": 40.7520097,
    "lon": -80.3192295
  },
  {
    "id": "beaver_pa",
    "label": "Beaver, PA",
    "lat": 40.6916624,
    "lon": -80.3709999
  },
  {
    "id": "beavercreek_oh",
    "label": "Beavercreek, OH",
    "lat": 39.7092262,
    "lon": -84.0632685
  },
  {
    "id": "bedford_ny",
    "label": "Bedford, NY",
    "lat": 41.2041304,
    "lon": -73.642509
  },
  {
    "id": "bedford_oh",
    "label": "Bedford, OH",
    "lat": 41.39311,
    "lon": -81.536509
  },
  {
    "id": "bedford_tx",
    "label": "Bedford, TX",
    "lat": 32.844017,
    "lon": -97.1430671
  },
  {
    "id": "bee_spring_ky",
    "label": "Bee Spring, KY",
    "lat": 37.2894937,
    "lon": -86.2846965
  },
  {
    "id": "beebe_ar",
    "label": "Beebe, AR",
    "lat": 35.0735738,
    "lon": -91.8863516
  },
  {
    "id": "beech_island_sc",
    "label": "Beech Island, SC",
    "lat": 33.4280649,
    "lon": -81.8891583
  },
  {
    "id": "beechmont_ky",
    "label": "Beechmont, KY",
    "lat": 37.1744874,
    "lon": -87.0324962
  },
  {
    "id": "bel_air_md",
    "label": "Bel Air, MD",
    "lat": 39.5355063,
    "lon": -76.3490396
  },
  {
    "id": "belchertown_ma",
    "label": "Belchertown, MA",
    "lat": 42.2772732,
    "lon": -72.4007966
  },
  {
    "id": "belden_ms",
    "label": "Belden, MS",
    "lat": 34.3103831,
    "lon": -88.7883888
  },
  {
    "id": "belfry_ky",
    "label": "Belfry, KY",
    "lat": 37.6203804,
    "lon": -82.2690294
  },
  {
    "id": "bell_buckle_tn",
    "label": "Bell Buckle, TN",
    "lat": 35.5917382,
    "lon": -86.3541598
  },
  {
    "id": "bell_city_mo",
    "label": "Bell City, MO",
    "lat": 37.0236611,
    "lon": -89.8198098
  },
  {
    "id": "bellbrook_oh",
    "label": "Bellbrook, OH",
    "lat": 39.6358399,
    "lon": -84.0701766
  },
  {
    "id": "belle_chasse_la",
    "label": "Belle Chasse, LA",
    "lat": 29.8549287,
    "lon": -89.9906253
  },
  {
    "id": "belleair_beach_fl",
    "label": "Belleair Beach, FL",
    "lat": 27.9230767,
    "lon": -82.8431594
  },
  {
    "id": "belleair_fl",
    "label": "Belleair, FL",
    "lat": 27.9358543,
    "lon": -82.8062139
  },
  {
    "id": "bellefonte_pa",
    "label": "Bellefonte, PA",
    "lat": 40.9134862,
    "lon": -77.7737471
  },
  {
    "id": "belleview_fl",
    "label": "Belleview, FL",
    "lat": 29.0625783,
    "lon": -82.0495108
  },
  {
    "id": "belleville_il",
    "label": "Belleville, IL",
    "lat": 38.5135805,
    "lon": -89.9841627
  },
  {
    "id": "belleville_mi",
    "label": "Belleville, MI",
    "lat": 42.2048414,
    "lon": -83.4852106
  },
  {
    "id": "bellevue_oh",
    "label": "Bellevue, OH",
    "lat": 41.2742069,
    "lon": -82.8409808
  },
  {
    "id": "bellevue_pa",
    "label": "Bellevue, PA",
    "lat": 40.4959365,
    "lon": -80.0563537
  },
  {
    "id": "bellingham_wa",
    "label": "Bellingham, WA",
    "lat": 48.7544012,
    "lon": -122.478836
  },
  {
    "id": "bellmawr_nj",
    "label": "Bellmawr, NJ",
    "lat": 39.8676134,
    "lon": -75.0946183
  },
  {
    "id": "belmont_ma",
    "label": "Belmont, MA",
    "lat": 42.3959296,
    "lon": -71.1786655
  },
  {
    "id": "belmont_nc",
    "label": "Belmont, NC",
    "lat": 35.2438272,
    "lon": -81.0377322
  },
  {
    "id": "belo_horizonte_mg",
    "label": "Belo Horizonte, MG",
    "lat": -19.9227318,
    "lon": -43.9450948
  },
  {
    "id": "belton_mo",
    "label": "Belton, MO",
    "lat": 38.8108097,
    "lon": -94.5313502
  },
  {
    "id": "belton_sc",
    "label": "Belton, SC",
    "lat": 34.5228881,
    "lon": -82.4942948
  },
  {
    "id": "beltsville_md",
    "label": "Beltsville, MD",
    "lat": 39.0397735,
    "lon": -76.9271851
  },
  {
    "id": "belvidere_il",
    "label": "Belvidere, IL",
    "lat": 42.2579991,
    "lon": -88.841734
  },
  {
    "id": "belvidere_tn",
    "label": "Belvidere, TN",
    "lat": 35.1292509,
    "lon": -86.1866532
  },
  {
    "id": "bend_or",
    "label": "Bend, OR",
    "lat": 44.0581728,
    "lon": -121.3153096
  },
  {
    "id": "benicia_california",
    "label": "Benicia, CALIFORNIA",
    "lat": 38.049365,
    "lon": -122.1585777
  },
  {
    "id": "bennettsville_sc",
    "label": "Bennettsville, SC",
    "lat": 34.6173516,
    "lon": -79.684768
  },
  {
    "id": "benton_ar",
    "label": "Benton, AR",
    "lat": 36.3456186,
    "lon": -94.2670404
  },
  {
    "id": "benton_arkansas",
    "label": "Benton, ARKANSAS",
    "lat": 36.3456186,
    "lon": -94.2670404
  },
  {
    "id": "benton_ky",
    "label": "Benton, KY",
    "lat": 36.8572781,
    "lon": -88.350315
  },
  {
    "id": "benton_la",
    "label": "Benton, LA",
    "lat": 32.6978036,
    "lon": -93.7399258
  },
  {
    "id": "benton_pa",
    "label": "Benton, PA",
    "lat": 41.1950837,
    "lon": -76.3835528
  },
  {
    "id": "benton_tn",
    "label": "Benton, TN",
    "lat": 36.0345286,
    "lon": -88.101285
  },
  {
    "id": "benton_wi",
    "label": "Benton, WI",
    "lat": 42.569382,
    "lon": -90.3809239
  },
  {
    "id": "bentonville_ar",
    "label": "Bentonville, AR",
    "lat": 36.3728608,
    "lon": -94.208787
  },
  {
    "id": "berea_ky",
    "label": "Berea, KY",
    "lat": 37.568694,
    "lon": -84.2963224
  },
  {
    "id": "berkeley_lake_ga",
    "label": "Berkeley Lake, GA",
    "lat": 33.983712,
    "lon": -84.1865849
  },
  {
    "id": "berkeley_ca",
    "label": "Berkeley, CA",
    "lat": 37.8708393,
    "lon": -122.272863
  },
  {
    "id": "berkeley_california",
    "label": "Berkeley, CALIFORNIA",
    "lat": 37.8708393,
    "lon": -122.272863
  },
  {
    "id": "berkley_ma",
    "label": "Berkley, MA",
    "lat": 41.8459347,
    "lon": -71.0828222
  },
  {
    "id": "berkley_mi",
    "label": "Berkley, MI",
    "lat": 42.5030909,
    "lon": -83.1835389
  },
  {
    "id": "berlin_nh",
    "label": "Berlin, NH",
    "lat": 44.4696602,
    "lon": -71.1810703
  },
  {
    "id": "berthoud_co",
    "label": "Berthoud, CO",
    "lat": 40.3135085,
    "lon": -104.9700676
  },
  {
    "id": "bertram_tx",
    "label": "Bertram, TX",
    "lat": 30.7437645,
    "lon": -98.0554349
  },
  {
    "id": "berwick_la",
    "label": "Berwick, LA",
    "lat": 29.6932795,
    "lon": -91.2234005
  },
  {
    "id": "bessemer_city_nc",
    "label": "Bessemer City, NC",
    "lat": 35.284733,
    "lon": -81.283906
  },
  {
    "id": "bessemer_al",
    "label": "Bessemer, AL",
    "lat": 33.4017766,
    "lon": -86.954437
  },
  {
    "id": "bethany_beach_de",
    "label": "Bethany Beach, DE",
    "lat": 38.5379676,
    "lon": -75.0588646
  },
  {
    "id": "bethel_oh",
    "label": "Bethel, OH",
    "lat": 38.9636771,
    "lon": -84.0807664
  },
  {
    "id": "bethesda_md",
    "label": "Bethesda, MD",
    "lat": 38.9812726,
    "lon": -77.1233587
  },
  {
    "id": "bethlehem_ga",
    "label": "Bethlehem, GA",
    "lat": 33.9328842,
    "lon": -83.7129958
  },
  {
    "id": "bethlehem_pa",
    "label": "Bethlehem, PA",
    "lat": -1.45056,
    "lon": -48.4682453
  },
  {
    "id": "beverly_hills_fl",
    "label": "Beverly Hills, FL",
    "lat": 28.9203666,
    "lon": -82.4636305
  },
  {
    "id": "big_bend_wi",
    "label": "Big Bend, WI",
    "lat": 42.8814034,
    "lon": -88.2067573
  },
  {
    "id": "big_creek_ky",
    "label": "Big Creek, KY",
    "lat": 37.1623123,
    "lon": -83.5688015
  },
  {
    "id": "big_pine_key_fl",
    "label": "Big Pine Key, FL",
    "lat": 24.6698652,
    "lon": -81.353969
  },
  {
    "id": "big_rapids_mi",
    "label": "Big Rapids, MI",
    "lat": 43.698078,
    "lon": -85.483656
  },
  {
    "id": "big_rock_il",
    "label": "Big Rock, IL",
    "lat": 41.7639181,
    "lon": -88.5470219
  },
  {
    "id": "big_sandy_tn",
    "label": "Big Sandy, TN",
    "lat": 36.2347791,
    "lon": -88.0853146
  },
  {
    "id": "bigelow_ar",
    "label": "Bigelow, AR",
    "lat": 35.0012336,
    "lon": -92.6295795
  },
  {
    "id": "biggs_ca",
    "label": "Biggs, CA",
    "lat": 39.4123876,
    "lon": -121.712751
  },
  {
    "id": "billings_mt",
    "label": "Billings, MT",
    "lat": 45.7874957,
    "lon": -108.49607
  },
  {
    "id": "billingsley_al",
    "label": "Billingsley, AL",
    "lat": 32.659575,
    "lon": -86.717761
  },
  {
    "id": "biloxi_ms",
    "label": "Biloxi, MS",
    "lat": 30.4007626,
    "lon": -88.8893818
  },
  {
    "id": "bingham_farms_mi",
    "label": "Bingham Farms, MI",
    "lat": 42.515868,
    "lon": -83.2732643
  },
  {
    "id": "binghamton_ny",
    "label": "Binghamton, NY",
    "lat": 42.098698,
    "lon": -75.9125187
  },
  {
    "id": "birch_tree_mo",
    "label": "Birch Tree, MO",
    "lat": 36.9911648,
    "lon": -91.4926376
  },
  {
    "id": "birmingham_al",
    "label": "Birmingham, AL",
    "lat": 33.5206824,
    "lon": -86.8024326
  },
  {
    "id": "biscayne_park_fl",
    "label": "Biscayne Park, FL",
    "lat": 25.8825951,
    "lon": -80.1806025
  },
  {
    "id": "bismarck_nd",
    "label": "Bismarck, ND",
    "lat": 46.808327,
    "lon": -100.783739
  },
  {
    "id": "bitely_mi",
    "label": "Bitely, MI",
    "lat": 43.7469591,
    "lon": -85.8617261
  },
  {
    "id": "black_mountain_nc",
    "label": "Black Mountain, NC",
    "lat": 35.6176544,
    "lon": -82.3205791
  },
  {
    "id": "blackpool_lancashire",
    "label": "Blackpool, LANCASHIRE",
    "lat": 53.8179442,
    "lon": -3.0509812
  },
  {
    "id": "blacksburg_va",
    "label": "Blacksburg, VA",
    "lat": 37.2296566,
    "lon": -80.4136767
  },
  {
    "id": "blackshear_ga",
    "label": "Blackshear, GA",
    "lat": 31.3042798,
    "lon": -82.2404922
  },
  {
    "id": "blackville_sc",
    "label": "Blackville, SC",
    "lat": 33.3551173,
    "lon": -81.2707218
  },
  {
    "id": "blackwood_nj",
    "label": "Blackwood, NJ",
    "lat": 39.799232,
    "lon": -75.0641699
  },
  {
    "id": "blaine_mn",
    "label": "Blaine, MN",
    "lat": 45.1607987,
    "lon": -93.2349489
  },
  {
    "id": "blaine_tn",
    "label": "Blaine, TN",
    "lat": 36.1542508,
    "lon": -83.7040704
  },
  {
    "id": "blaine_wa",
    "label": "Blaine, WA",
    "lat": 48.9881108,
    "lon": -122.743575
  },
  {
    "id": "blaine_washington",
    "label": "Blaine, WASHINGTON",
    "lat": 48.9881108,
    "lon": -122.743575
  },
  {
    "id": "blainville_qc",
    "label": "Blainville, QC",
    "lat": 45.67932,
    "lon": -73.87619
  },
  {
    "id": "blairsville_ga",
    "label": "Blairsville, GA",
    "lat": 34.8759067,
    "lon": -83.958371
  },
  {
    "id": "blakely_ga",
    "label": "Blakely, GA",
    "lat": 31.3773475,
    "lon": -84.9343388
  },
  {
    "id": "blanchester_oh",
    "label": "Blanchester, OH",
    "lat": 39.2931174,
    "lon": -83.9888205
  },
  {
    "id": "bloomfield_hills_mi",
    "label": "Bloomfield Hills, MI",
    "lat": 42.583645,
    "lon": -83.2454883
  },
  {
    "id": "bloomfield_ky",
    "label": "Bloomfield, KY",
    "lat": 37.9103403,
    "lon": -85.316622
  },
  {
    "id": "bloomfield_ny",
    "label": "Bloomfield, NY",
    "lat": 42.8950641,
    "lon": -77.4347128
  },
  {
    "id": "bloomington_il",
    "label": "Bloomington, IL",
    "lat": 40.4797828,
    "lon": -88.9939147
  },
  {
    "id": "bloomington_in",
    "label": "Bloomington, IN",
    "lat": 39.1670396,
    "lon": -86.5342881
  },
  {
    "id": "bloomington_mn",
    "label": "Bloomington, MN",
    "lat": 44.8322405,
    "lon": -93.3204872
  },
  {
    "id": "blountstown_fl",
    "label": "Blountstown, FL",
    "lat": 30.4435293,
    "lon": -85.0451953
  },
  {
    "id": "blountville_tn",
    "label": "Blountville, TN",
    "lat": 36.5331586,
    "lon": -82.326806
  },
  {
    "id": "blue_bell_pa",
    "label": "Blue Bell, PA",
    "lat": 40.147809,
    "lon": -75.272781
  },
  {
    "id": "blue_bell_pennsylvania",
    "label": "Blue Bell, PENNSYLVANIA",
    "lat": 40.147809,
    "lon": -75.272781
  },
  {
    "id": "blue_island_il",
    "label": "Blue Island, IL",
    "lat": 41.6573014,
    "lon": -87.679871
  },
  {
    "id": "blue_springs_ms",
    "label": "Blue Springs, MS",
    "lat": 34.401021,
    "lon": -88.8720781
  },
  {
    "id": "bluff_city_tn",
    "label": "Bluff City, TN",
    "lat": 36.4742705,
    "lon": -82.2609685
  },
  {
    "id": "bluffton_in",
    "label": "Bluffton, IN",
    "lat": 40.7386579,
    "lon": -85.1716368
  },
  {
    "id": "bluffton_sc",
    "label": "Bluffton, SC",
    "lat": 32.2371465,
    "lon": -80.8603868
  },
  {
    "id": "blytheville_ar",
    "label": "Blytheville, AR",
    "lat": 35.9283249,
    "lon": -89.9045612
  },
  {
    "id": "blythewood_sc",
    "label": "Blythewood, SC",
    "lat": 34.2143159,
    "lon": -80.973977
  },
  {
    "id": "boaz_al",
    "label": "Boaz, AL",
    "lat": 34.1983281,
    "lon": -86.1649421
  },
  {
    "id": "boca_raton_fl",
    "label": "Boca Raton, FL",
    "lat": 26.3586885,
    "lon": -80.0830984
  },
  {
    "id": "boca_raton_florida",
    "label": "Boca Raton, FLORIDA",
    "lat": 26.3586885,
    "lon": -80.0830984
  },
  {
    "id": "bogart_ga",
    "label": "Bogart, GA",
    "lat": 33.949281,
    "lon": -83.534608
  },
  {
    "id": "bogue_chitto_ms",
    "label": "Bogue Chitto, MS",
    "lat": 32.834635,
    "lon": -88.923767
  },
  {
    "id": "boiling_springs_nc",
    "label": "Boiling Springs, NC",
    "lat": 35.254292,
    "lon": -81.6670407
  },
  {
    "id": "boiling_springs_sc",
    "label": "Boiling Springs, SC",
    "lat": 35.04136,
    "lon": -81.9788202
  },
  {
    "id": "boise_id",
    "label": "Boise, ID",
    "lat": 43.6166163,
    "lon": -116.200886
  },
  {
    "id": "boise_idaho",
    "label": "Boise, IDAHO",
    "lat": 43.6166163,
    "lon": -116.200886
  },
  {
    "id": "bolingbrook_il",
    "label": "Bolingbrook, IL",
    "lat": 41.7003302,
    "lon": -88.0717708
  },
  {
    "id": "bolivar_tn",
    "label": "Bolivar, TN",
    "lat": 35.2561937,
    "lon": -88.9878389
  },
  {
    "id": "bolivia_nc",
    "label": "Bolivia, NC",
    "lat": 34.0676715,
    "lon": -78.1483283
  },
  {
    "id": "bolton_ma",
    "label": "Bolton, MA",
    "lat": 42.4342336,
    "lon": -71.6097744
  },
  {
    "id": "bonaire_ga",
    "label": "Bonaire, GA",
    "lat": 32.5438429,
    "lon": -83.5960264
  },
  {
    "id": "bondurant_ia",
    "label": "Bondurant, IA",
    "lat": 41.7005441,
    "lon": -93.462157
  },
  {
    "id": "bonifay_fl",
    "label": "Bonifay, FL",
    "lat": 30.7918559,
    "lon": -85.6796533
  },
  {
    "id": "bonita_springs_fl",
    "label": "Bonita Springs, FL",
    "lat": 26.339806,
    "lon": -81.7786972
  },
  {
    "id": "bonne_terre_mo",
    "label": "Bonne Terre, MO",
    "lat": 37.9247678,
    "lon": -90.5510587
  },
  {
    "id": "bonneau_sc",
    "label": "Bonneau, SC",
    "lat": 33.305446,
    "lon": -79.9578565
  },
  {
    "id": "boomer_nc",
    "label": "Boomer, NC",
    "lat": 36.0673532,
    "lon": -81.2536987
  },
  {
    "id": "boone_nc",
    "label": "Boone, NC",
    "lat": 36.2187873,
    "lon": -81.684004
  },
  {
    "id": "boonville_in",
    "label": "Boonville, IN",
    "lat": 38.0493288,
    "lon": -87.2746568
  },
  {
    "id": "boonville_nc",
    "label": "Boonville, NC",
    "lat": 36.2326362,
    "lon": -80.7081209
  },
  {
    "id": "bossier_city_la",
    "label": "Bossier City, LA",
    "lat": 32.515887,
    "lon": -93.7336536
  },
  {
    "id": "boston_ma",
    "label": "Boston, MA",
    "lat": 42.3588336,
    "lon": -71.0578303
  },
  {
    "id": "bothell_wa",
    "label": "Bothell, WA",
    "lat": 47.7623204,
    "lon": -122.2054035
  },
  {
    "id": "botkins_oh",
    "label": "Botkins, OH",
    "lat": 40.467826,
    "lon": -84.1805022
  },
  {
    "id": "boulder_co",
    "label": "Boulder, CO",
    "lat": 40.0149856,
    "lon": -105.270545
  },
  {
    "id": "bound_brook_nj",
    "label": "Bound Brook, NJ",
    "lat": 40.5684363,
    "lon": -74.5384889
  },
  {
    "id": "bourbonnais_il",
    "label": "Bourbonnais, IL",
    "lat": 41.1639309,
    "lon": -87.8839693
  },
  {
    "id": "bourbonnais_illinois",
    "label": "Bourbonnais, ILLINOIS",
    "lat": 41.1639309,
    "lon": -87.8839693
  },
  {
    "id": "bourg_la",
    "label": "Bourg, LA",
    "lat": 29.5535491,
    "lon": -90.6023096
  },
  {
    "id": "bow_nh",
    "label": "Bow, NH",
    "lat": 43.133061,
    "lon": -71.549149
  },
  {
    "id": "bowdon_ga",
    "label": "Bowdon, GA",
    "lat": 33.5378885,
    "lon": -85.2532818
  },
  {
    "id": "bowling_green_ky",
    "label": "Bowling Green, KY",
    "lat": 36.9929203,
    "lon": -86.4428677
  },
  {
    "id": "boyds_md",
    "label": "Boyds, MD",
    "lat": 39.1840886,
    "lon": -77.3122325
  },
  {
    "id": "boynton_beach_fl",
    "label": "Boynton Beach, FL",
    "lat": 26.5289139,
    "lon": -80.058141
  },
  {
    "id": "bradenton_fl",
    "label": "Bradenton, FL",
    "lat": 27.4989278,
    "lon": -82.5748194
  },
  {
    "id": "bradenton_florida",
    "label": "Bradenton, FLORIDA",
    "lat": 27.4989278,
    "lon": -82.5748194
  },
  {
    "id": "bradford_west_yorkshire",
    "label": "Bradford, WEST YORKSHIRE",
    "lat": 53.7944229,
    "lon": -1.7519186
  },
  {
    "id": "bragg_city_mo",
    "label": "Bragg City, MO",
    "lat": 36.2681213,
    "lon": -89.9109223
  },
  {
    "id": "brainerd_mn",
    "label": "Brainerd, MN",
    "lat": 46.3580221,
    "lon": -94.2008288
  },
  {
    "id": "braintree_ma",
    "label": "Braintree, MA",
    "lat": 42.2205956,
    "lon": -71.0041229
  },
  {
    "id": "brampton_on",
    "label": "Brampton, ON",
    "lat": 43.685832,
    "lon": -79.7599366
  },
  {
    "id": "brandenburg_ky",
    "label": "Brandenburg, KY",
    "lat": 37.9989592,
    "lon": -86.1694143
  },
  {
    "id": "brandon_fl",
    "label": "Brandon, FL",
    "lat": 27.928464,
    "lon": -82.2880508
  },
  {
    "id": "brandon_ms",
    "label": "Brandon, MS",
    "lat": 32.2731475,
    "lon": -89.9868058
  },
  {
    "id": "brandywine_md",
    "label": "Brandywine, MD",
    "lat": 38.6934548,
    "lon": -76.8843081
  },
  {
    "id": "branford_ct",
    "label": "Branford, CT",
    "lat": 41.2795414,
    "lon": -72.8150989
  },
  {
    "id": "branford_fl",
    "label": "Branford, FL",
    "lat": 29.9591183,
    "lon": -82.9281833
  },
  {
    "id": "braselton_ga",
    "label": "Braselton, GA",
    "lat": 34.1092735,
    "lon": -83.7626729
  },
  {
    "id": "brasstown_nc",
    "label": "Brasstown, NC",
    "lat": 35.039895,
    "lon": -83.9573948
  },
  {
    "id": "brattleboro_vt",
    "label": "Brattleboro, VT",
    "lat": 42.8507588,
    "lon": -72.5572913
  },
  {
    "id": "breaux_bridge_la",
    "label": "Breaux Bridge, LA",
    "lat": 30.2735323,
    "lon": -91.8992837
  },
  {
    "id": "breckenridge_co",
    "label": "Breckenridge, CO",
    "lat": 39.4829124,
    "lon": -106.0465486
  },
  {
    "id": "brecksville_oh",
    "label": "Brecksville, OH",
    "lat": 41.3197763,
    "lon": -81.6267904
  },
  {
    "id": "brecksville_ohio",
    "label": "Brecksville, OHIO",
    "lat": 41.3197763,
    "lon": -81.6267904
  },
  {
    "id": "breese_il",
    "label": "Breese, IL",
    "lat": 38.6106338,
    "lon": -89.5259341
  },
  {
    "id": "bremen_ga",
    "label": "Bremen, GA",
    "lat": 33.7208676,
    "lon": -85.1456929
  },
  {
    "id": "brentwood_ca",
    "label": "Brentwood, CA",
    "lat": 37.9317766,
    "lon": -121.696026
  },
  {
    "id": "brentwood_essex",
    "label": "Brentwood, ESSEX",
    "lat": 51.6201654,
    "lon": 0.3018662
  },
  {
    "id": "brentwood_nh",
    "label": "Brentwood, NH",
    "lat": 42.9786981,
    "lon": -71.0728369
  },
  {
    "id": "brentwood_tn",
    "label": "Brentwood, TN",
    "lat": 36.0325687,
    "lon": -86.7825235
  },
  {
    "id": "brevard_nc",
    "label": "Brevard, NC",
    "lat": 35.2334472,
    "lon": -82.7342919
  },
  {
    "id": "brewster_ny",
    "label": "Brewster, NY",
    "lat": 41.3972985,
    "lon": -73.6165288
  },
  {
    "id": "brewton_al",
    "label": "Brewton, AL",
    "lat": 31.1039239,
    "lon": -87.0722655
  },
  {
    "id": "brick_township_nj",
    "label": "Brick Township, NJ",
    "lat": 40.0707244,
    "lon": -74.1280562
  },
  {
    "id": "brick_nj",
    "label": "Brick, NJ",
    "lat": 40.0707244,
    "lon": -74.1280562
  },
  {
    "id": "bridge_city_tx",
    "label": "Bridge City, TX",
    "lat": 30.0294356,
    "lon": -93.8399077
  },
  {
    "id": "bridgeport_tx",
    "label": "Bridgeport, TX",
    "lat": 33.2101155,
    "lon": -97.7547552
  },
  {
    "id": "bridgewater_township_nj",
    "label": "Bridgewater Township, NJ",
    "lat": 40.5931225,
    "lon": -74.604954
  },
  {
    "id": "bridgewater_ct",
    "label": "Bridgewater, CT",
    "lat": 41.5350949,
    "lon": -73.3662305
  },
  {
    "id": "brigantine_nj",
    "label": "Brigantine, NJ",
    "lat": 39.4101171,
    "lon": -74.3645906
  },
  {
    "id": "brighton_co",
    "label": "Brighton, CO",
    "lat": 39.983721,
    "lon": -104.8110775
  },
  {
    "id": "brighton_tn",
    "label": "Brighton, TN",
    "lat": 35.4839713,
    "lon": -89.7250805
  },
  {
    "id": "brightwaters_ny",
    "label": "Brightwaters, NY",
    "lat": 40.7209321,
    "lon": -73.2673399
  },
  {
    "id": "brisbane_qld",
    "label": "Brisbane, QLD",
    "lat": -27.4689623,
    "lon": 153.0235009
  },
  {
    "id": "bristol_ct",
    "label": "Bristol, CT",
    "lat": 41.6735209,
    "lon": -72.9464859
  },
  {
    "id": "bristol_fl",
    "label": "Bristol, FL",
    "lat": 30.4321947,
    "lon": -84.9765067
  },
  {
    "id": "bristol_pa",
    "label": "Bristol, PA",
    "lat": 40.1229002,
    "lon": -74.8644706
  },
  {
    "id": "bristol_tn",
    "label": "Bristol, TN",
    "lat": 36.5945034,
    "lon": -82.1885212
  },
  {
    "id": "bristol_va",
    "label": "Bristol, VA",
    "lat": 36.5959685,
    "lon": -82.1885009
  },
  {
    "id": "bristow_va",
    "label": "Bristow, VA",
    "lat": 38.7233263,
    "lon": -77.5365669
  },
  {
    "id": "broadway_virginia",
    "label": "Broadway, VIRGINIA",
    "lat": 38.6133035,
    "lon": -78.7993257
  },
  {
    "id": "brodnax_va",
    "label": "Brodnax, VA",
    "lat": 36.7065338,
    "lon": -78.0313851
  },
  {
    "id": "brodowski_sp",
    "label": "Brodowski, SP",
    "lat": -20.9862299,
    "lon": -47.6578768
  },
  {
    "id": "broken_arrow_ok",
    "label": "Broken Arrow, OK",
    "lat": 36.0525993,
    "lon": -95.7908195
  },
  {
    "id": "broken_bow_ok",
    "label": "Broken Bow, OK",
    "lat": 34.0298629,
    "lon": -94.7389659
  },
  {
    "id": "bronston_ky",
    "label": "Bronston, KY",
    "lat": 36.9856324,
    "lon": -84.6229965
  },
  {
    "id": "brooker_fl",
    "label": "Brooker, FL",
    "lat": 29.888917,
    "lon": -82.3329764
  },
  {
    "id": "brookfield_wi",
    "label": "Brookfield, WI",
    "lat": 43.0615578,
    "lon": -88.1260678
  },
  {
    "id": "brookhaven_ga",
    "label": "Brookhaven, GA",
    "lat": 33.8584368,
    "lon": -84.340203
  },
  {
    "id": "brookhaven_ms",
    "label": "Brookhaven, MS",
    "lat": 31.5790667,
    "lon": -90.4407122
  },
  {
    "id": "brookings_sd",
    "label": "Brookings, SD",
    "lat": 44.311461,
    "lon": -96.79844
  },
  {
    "id": "brooklet_ga",
    "label": "Brooklet, GA",
    "lat": 32.3796294,
    "lon": -81.6631659
  },
  {
    "id": "brooklyn_mi",
    "label": "Brooklyn, MI",
    "lat": 42.105874,
    "lon": -84.2482819
  },
  {
    "id": "brooklyn_ny",
    "label": "Brooklyn, NY",
    "lat": 40.6526006,
    "lon": -73.9497211
  },
  {
    "id": "brooklyn_oh",
    "label": "Brooklyn, OH",
    "lat": 41.439754,
    "lon": -81.7405559
  },
  {
    "id": "brooks_ga",
    "label": "Brooks, GA",
    "lat": 30.8336559,
    "lon": -83.5958387
  },
  {
    "id": "brooks_ky",
    "label": "Brooks, KY",
    "lat": 38.061579,
    "lon": -85.7204915
  },
  {
    "id": "brooksville_fl",
    "label": "Brooksville, FL",
    "lat": 28.5552719,
    "lon": -82.3878709
  },
  {
    "id": "broomfield_co",
    "label": "Broomfield, CO",
    "lat": 39.9403995,
    "lon": -105.05208
  },
  {
    "id": "broussard_la",
    "label": "Broussard, LA",
    "lat": 30.1471506,
    "lon": -91.9612413
  },
  {
    "id": "browns_mills_nj",
    "label": "Browns Mills, NJ",
    "lat": 39.9720443,
    "lon": -74.5693581
  },
  {
    "id": "brownsburg_indiana",
    "label": "Brownsburg, INDIANA",
    "lat": 39.8444409,
    "lon": -86.3968962
  },
  {
    "id": "brownsville_tn",
    "label": "Brownsville, TN",
    "lat": 35.5939671,
    "lon": -89.262291
  },
  {
    "id": "brownwood_tx",
    "label": "Brownwood, TX",
    "lat": 31.7208509,
    "lon": -98.9818701
  },
  {
    "id": "broxton_ga",
    "label": "Broxton, GA",
    "lat": 31.6253346,
    "lon": -82.8866264
  },
  {
    "id": "brundidge_al",
    "label": "Brundidge, AL",
    "lat": 31.7201615,
    "lon": -85.8160567
  },
  {
    "id": "brunswick_ga",
    "label": "Brunswick, GA",
    "lat": 31.1499528,
    "lon": -81.4914894
  },
  {
    "id": "brunswick_me",
    "label": "Brunswick, ME",
    "lat": 43.9166529,
    "lon": -69.9659438
  },
  {
    "id": "brunswick_oh",
    "label": "Brunswick, OH",
    "lat": 41.2456819,
    "lon": -81.8275398
  },
  {
    "id": "brush_prairie_wa",
    "label": "Brush Prairie, WA",
    "lat": 45.732839,
    "lon": -122.5433169
  },
  {
    "id": "brusly_la",
    "label": "Brusly, LA",
    "lat": 30.3943588,
    "lon": -91.2537199
  },
  {
    "id": "bryant_ar",
    "label": "Bryant, AR",
    "lat": 34.5959045,
    "lon": -92.488348
  },
  {
    "id": "bryceville_fl",
    "label": "Bryceville, FL",
    "lat": 30.3846821,
    "lon": -81.9387195
  },
  {
    "id": "bryn_athyn_pa",
    "label": "Bryn Athyn, PA",
    "lat": 40.1314988,
    "lon": -75.0673938
  },
  {
    "id": "buchanan_ga",
    "label": "Buchanan, GA",
    "lat": 33.8026048,
    "lon": -85.1885607
  },
  {
    "id": "buckfield_me",
    "label": "Buckfield, ME",
    "lat": 44.2899492,
    "lon": -70.3653651
  },
  {
    "id": "buckhorn_ky",
    "label": "Buckhorn, KY",
    "lat": 37.3469599,
    "lon": -83.4764881
  },
  {
    "id": "buckingham_pa",
    "label": "Buckingham, PA",
    "lat": 40.3165463,
    "lon": -75.0469193
  },
  {
    "id": "buckley_wa",
    "label": "Buckley, WA",
    "lat": 47.1622483,
    "lon": -122.027746
  },
  {
    "id": "buckner_ky",
    "label": "Buckner, KY",
    "lat": 38.3928715,
    "lon": -85.440105
  },
  {
    "id": "bucks_county_pa",
    "label": "Bucks County, PA",
    "lat": 40.3451668,
    "lon": -75.1263909
  },
  {
    "id": "bucyrus_oh",
    "label": "Bucyrus, OH",
    "lat": 40.8083909,
    "lon": -82.9754649
  },
  {
    "id": "bucyrus_ohio",
    "label": "Bucyrus, OHIO",
    "lat": 40.8083909,
    "lon": -82.9754649
  },
  {
    "id": "buffalo_grove_il",
    "label": "Buffalo Grove, IL",
    "lat": 42.1544205,
    "lon": -87.9589621
  },
  {
    "id": "buffalo_ky",
    "label": "Buffalo, KY",
    "lat": 37.5120048,
    "lon": -85.6985728
  },
  {
    "id": "buffalo_mn",
    "label": "Buffalo, MN",
    "lat": 45.1719084,
    "lon": -93.8746941
  },
  {
    "id": "buffalo_ny",
    "label": "Buffalo, NY",
    "lat": 42.8864163,
    "lon": -78.8781493
  },
  {
    "id": "buford_ga",
    "label": "Buford, GA",
    "lat": 34.1206564,
    "lon": -84.0043513
  },
  {
    "id": "buford_georgia",
    "label": "Buford, GEORGIA",
    "lat": 34.1206564,
    "lon": -84.0043513
  },
  {
    "id": "buhl_al",
    "label": "Buhl, AL",
    "lat": 33.2570623,
    "lon": -87.7527902
  },
  {
    "id": "bulls_gap_tn",
    "label": "Bulls Gap, TN",
    "lat": 36.2535742,
    "lon": -83.086061
  },
  {
    "id": "buna_tx",
    "label": "Buna, TX",
    "lat": 30.4368977,
    "lon": -93.964566
  },
  {
    "id": "bunnell_fl",
    "label": "Bunnell, FL",
    "lat": 29.4657731,
    "lon": -81.2576832
  },
  {
    "id": "burbank_california",
    "label": "Burbank, CALIFORNIA",
    "lat": 34.1812089,
    "lon": -118.307201
  },
  {
    "id": "burke_va",
    "label": "Burke, VA",
    "lat": 38.7812445,
    "lon": -77.2688875
  },
  {
    "id": "burleson_tx",
    "label": "Burleson, TX",
    "lat": 30.4764878,
    "lon": -96.6353488
  },
  {
    "id": "burlingame_ca",
    "label": "Burlingame, CA",
    "lat": 37.5780965,
    "lon": -122.3473099
  },
  {
    "id": "burlington_ia",
    "label": "Burlington, IA",
    "lat": 40.8126922,
    "lon": -91.1020205
  },
  {
    "id": "burlington_ky",
    "label": "Burlington, KY",
    "lat": 39.02756,
    "lon": -84.7241133
  },
  {
    "id": "burlington_nc",
    "label": "Burlington, NC",
    "lat": 36.0956918,
    "lon": -79.4377991
  },
  {
    "id": "burlington_nj",
    "label": "Burlington, NJ",
    "lat": 39.9325409,
    "lon": -74.7226665
  },
  {
    "id": "burlington_vt",
    "label": "Burlington, VT",
    "lat": 44.4761601,
    "lon": -73.212906
  },
  {
    "id": "burlington_wi",
    "label": "Burlington, WI",
    "lat": 42.6801053,
    "lon": -88.276413
  },
  {
    "id": "burlison_tn",
    "label": "Burlison, TN",
    "lat": 35.5569461,
    "lon": -89.778357
  },
  {
    "id": "burns_tn",
    "label": "Burns, TN",
    "lat": 36.0533943,
    "lon": -87.3125104
  },
  {
    "id": "burnsville_mn",
    "label": "Burnsville, MN",
    "lat": 44.7670567,
    "lon": -93.2773887
  },
  {
    "id": "burnsville_nc",
    "label": "Burnsville, NC",
    "lat": 35.9172243,
    "lon": -82.2996695
  },
  {
    "id": "burton_mi",
    "label": "Burton, MI",
    "lat": 42.9897333,
    "lon": -83.6335032
  },
  {
    "id": "butler_pa",
    "label": "Butler, PA",
    "lat": 40.8604672,
    "lon": -79.8970522
  },
  {
    "id": "buxton_me",
    "label": "Buxton, ME",
    "lat": 43.612404,
    "lon": -70.540878
  },
  {
    "id": "buzzards_bay_ma",
    "label": "Buzzards Bay, MA",
    "lat": 41.7452589,
    "lon": -70.6154965
  },
  {
    "id": "byhalia_ms",
    "label": "Byhalia, MS",
    "lat": 34.8723179,
    "lon": -89.6906396
  },
  {
    "id": "byram_ms",
    "label": "Byram, MS",
    "lat": 32.184469,
    "lon": -90.2764625
  },
  {
    "id": "byrdstown_tn",
    "label": "Byrdstown, TN",
    "lat": 36.5745104,
    "lon": -85.1288435
  },
  {
    "id": "byron_center_mi",
    "label": "Byron Center, MI",
    "lat": 42.8143115,
    "lon": -85.7279047
  },
  {
    "id": "cabazon_ca",
    "label": "Cabazon, CA",
    "lat": 33.9090305,
    "lon": -116.7795345
  },
  {
    "id": "cabot_ar",
    "label": "Cabot, AR",
    "lat": 34.974532,
    "lon": -92.0165336
  },
  {
    "id": "cairo_ga",
    "label": "Cairo, GA",
    "lat": 30.8773326,
    "lon": -84.2079425
  },
  {
    "id": "calabash_nc",
    "label": "Calabash, NC",
    "lat": 33.8907278,
    "lon": -78.5683446
  },
  {
    "id": "caldwell_id",
    "label": "Caldwell, ID",
    "lat": 43.6678736,
    "lon": -116.689415
  },
  {
    "id": "caledonia_ms",
    "label": "Caledonia, MS",
    "lat": 33.6828918,
    "lon": -88.3244812
  },
  {
    "id": "calera_al",
    "label": "Calera, AL",
    "lat": 33.1035045,
    "lon": -86.7505733
  },
  {
    "id": "calgary_ab",
    "label": "Calgary, AB",
    "lat": 51.0456064,
    "lon": -114.057541
  },
  {
    "id": "calhoun_city_ms",
    "label": "Calhoun City, MS",
    "lat": 33.8553915,
    "lon": -89.3114613
  },
  {
    "id": "calhoun_ga",
    "label": "Calhoun, GA",
    "lat": 31.5311784,
    "lon": -84.614328
  },
  {
    "id": "calico_rock_ar",
    "label": "Calico Rock, AR",
    "lat": 36.1195143,
    "lon": -92.1359867
  },
  {
    "id": "california_ca",
    "label": "California, CA",
    "lat": 37.8754996,
    "lon": -122.2390685
  },
  {
    "id": "callahan_fl",
    "label": "Callahan, FL",
    "lat": 30.5637205,
    "lon": -81.8297744
  },
  {
    "id": "calvert_city_ky",
    "label": "Calvert City, KY",
    "lat": 37.0333896,
    "lon": -88.3500362
  },
  {
    "id": "camanche_ia",
    "label": "Camanche, IA",
    "lat": 41.7880862,
    "lon": -90.2562398
  },
  {
    "id": "camarillo_ca",
    "label": "Camarillo, CA",
    "lat": 34.2176371,
    "lon": -119.0383541
  },
  {
    "id": "camber_england",
    "label": "Camber, ENGLAND",
    "lat": 50.939823,
    "lon": 0.8352012
  },
  {
    "id": "cambridge_springs_pa",
    "label": "Cambridge Springs, PA",
    "lat": 41.803668,
    "lon": -80.056444
  },
  {
    "id": "cambridge_ma",
    "label": "Cambridge, MA",
    "lat": 42.3656347,
    "lon": -71.1040018
  },
  {
    "id": "cambridge_on",
    "label": "Cambridge, ON",
    "lat": 43.3600536,
    "lon": -80.3123023
  },
  {
    "id": "camby_in",
    "label": "Camby, IN",
    "lat": 39.661472,
    "lon": -86.3120233
  },
  {
    "id": "camdenwyoming_de",
    "label": "Camden-wyoming, DE",
    "lat": 39.1111337,
    "lon": -75.559342
  },
  {
    "id": "camden_ar",
    "label": "Camden, AR",
    "lat": 33.5845582,
    "lon": -92.8343294
  },
  {
    "id": "camden_sc",
    "label": "Camden, SC",
    "lat": 34.2464886,
    "lon": -80.6070391
  },
  {
    "id": "camden_tn",
    "label": "Camden, TN",
    "lat": 36.0589486,
    "lon": -88.0978151
  },
  {
    "id": "cameron_park_ca",
    "label": "Cameron Park, CA",
    "lat": 38.6781746,
    "lon": -120.99426
  },
  {
    "id": "cameron_mo",
    "label": "Cameron, MO",
    "lat": 39.7412703,
    "lon": -94.2384482
  },
  {
    "id": "cameron_nc",
    "label": "Cameron, NC",
    "lat": 35.3268226,
    "lon": -79.255303
  },
  {
    "id": "camilla_ga",
    "label": "Camilla, GA",
    "lat": 31.2312887,
    "lon": -84.2103726
  },
  {
    "id": "campbell_california",
    "label": "Campbell, CALIFORNIA",
    "lat": 37.2870626,
    "lon": -121.944881
  },
  {
    "id": "campbell_mo",
    "label": "Campbell, MO",
    "lat": 36.4933927,
    "lon": -90.0750949
  },
  {
    "id": "campbellsburg_ky",
    "label": "Campbellsburg, KY",
    "lat": 38.5236762,
    "lon": -85.2027327
  },
  {
    "id": "campbellsville_ky",
    "label": "Campbellsville, KY",
    "lat": 37.3433974,
    "lon": -85.3419069
  },
  {
    "id": "campobello_sc",
    "label": "Campobello, SC",
    "lat": 35.1158728,
    "lon": -82.149935
  },
  {
    "id": "campos_dos_goytacazes_rj",
    "label": "Campos Dos Goytacazes, RJ",
    "lat": -21.7546,
    "lon": -41.3242
  },
  {
    "id": "canal_winchester_oh",
    "label": "Canal Winchester, OH",
    "lat": 39.8428215,
    "lon": -82.805646
  },
  {
    "id": "candler_nc",
    "label": "Candler, NC",
    "lat": 35.5444359,
    "lon": -82.6838032
  },
  {
    "id": "candor_nc",
    "label": "Candor, NC",
    "lat": 35.2951421,
    "lon": -79.7453164
  },
  {
    "id": "caneyville_ky",
    "label": "Caneyville, KY",
    "lat": 37.4242184,
    "lon": -86.4883148
  },
  {
    "id": "canfield_oh",
    "label": "Canfield, OH",
    "lat": 41.025059,
    "lon": -80.760912
  },
  {
    "id": "canisteo_ny",
    "label": "Canisteo, NY",
    "lat": 42.2703487,
    "lon": -77.6058225
  },
  {
    "id": "cannon_falls_mn",
    "label": "Cannon Falls, MN",
    "lat": 44.5068445,
    "lon": -92.9062175
  },
  {
    "id": "canton_ga",
    "label": "Canton, GA",
    "lat": 34.2367621,
    "lon": -84.4907621
  },
  {
    "id": "canton_ma",
    "label": "Canton, MA",
    "lat": 42.1584324,
    "lon": -71.1447732
  },
  {
    "id": "canton_mi",
    "label": "Canton, MI",
    "lat": 32.612602,
    "lon": -90.0367512
  },
  {
    "id": "canton_michigan",
    "label": "Canton, MICHIGAN",
    "lat": 42.7269261,
    "lon": -84.6433146
  },
  {
    "id": "canton_nc",
    "label": "Canton, NC",
    "lat": 35.5328838,
    "lon": -82.8373558
  },
  {
    "id": "canton_oh",
    "label": "Canton, OH",
    "lat": 40.7985464,
    "lon": -81.3749508
  },
  {
    "id": "cantonment_fl",
    "label": "Cantonment, FL",
    "lat": 30.605427,
    "lon": -87.344442
  },
  {
    "id": "canyon_country_ca",
    "label": "Canyon Country, CA",
    "lat": 34.4233293,
    "lon": -118.4720281
  },
  {
    "id": "canyon_lake_california",
    "label": "Canyon Lake, CALIFORNIA",
    "lat": 33.6836539,
    "lon": -117.262615
  },
  {
    "id": "capacadie_nb",
    "label": "Cap-acadie, NB",
    "lat": 46.203449,
    "lon": -64.2635829
  },
  {
    "id": "cape_coral_fl",
    "label": "Cape Coral, FL",
    "lat": 26.5625742,
    "lon": -81.9438802
  },
  {
    "id": "capitola_ca",
    "label": "Capitola, CA",
    "lat": 36.9762927,
    "lon": -121.954057
  },
  {
    "id": "caraway_ar",
    "label": "Caraway, AR",
    "lat": 35.7590635,
    "lon": -90.323495
  },
  {
    "id": "carbondale_il",
    "label": "Carbondale, IL",
    "lat": 37.7274692,
    "lon": -89.216655
  },
  {
    "id": "cardwell_mo",
    "label": "Cardwell, MO",
    "lat": 36.0495441,
    "lon": -90.2931492
  },
  {
    "id": "carencro_la",
    "label": "Carencro, LA",
    "lat": 30.317144,
    "lon": -92.0490096
  },
  {
    "id": "carlisle_ky",
    "label": "Carlisle, KY",
    "lat": 36.8432751,
    "lon": -88.9636817
  },
  {
    "id": "carlton_ga",
    "label": "Carlton, GA",
    "lat": 34.0422003,
    "lon": -83.0334125
  },
  {
    "id": "carlton_or",
    "label": "Carlton, OR",
    "lat": 45.2942822,
    "lon": -123.176494
  },
  {
    "id": "carmen_ok",
    "label": "Carmen, OK",
    "lat": 36.5789213,
    "lon": -98.4622996
  },
  {
    "id": "carmichael_ca",
    "label": "Carmichael, CA",
    "lat": 38.6270985,
    "lon": -121.3222422
  },
  {
    "id": "carnation_wa",
    "label": "Carnation, WA",
    "lat": 47.6475134,
    "lon": -121.9129419
  },
  {
    "id": "carnesville_ga",
    "label": "Carnesville, GA",
    "lat": 34.3698266,
    "lon": -83.235155
  },
  {
    "id": "carneys_point_township_nj",
    "label": "Carneys Point Township, NJ",
    "lat": 39.7112247,
    "lon": -75.4701961
  },
  {
    "id": "caro_mi",
    "label": "Caro, MI",
    "lat": 43.491132,
    "lon": -83.396897
  },
  {
    "id": "carol_stream_il",
    "label": "Carol Stream, IL",
    "lat": 41.9125286,
    "lon": -88.1347927
  },
  {
    "id": "carpentersville_il",
    "label": "Carpentersville, IL",
    "lat": 42.1211364,
    "lon": -88.2578582
  },
  {
    "id": "carrier_mills_il",
    "label": "Carrier Mills, IL",
    "lat": 37.6842156,
    "lon": -88.6328326
  },
  {
    "id": "carriere_ms",
    "label": "Carriere, MS",
    "lat": 30.6168569,
    "lon": -89.6525648
  },
  {
    "id": "carrollton_al",
    "label": "Carrollton, AL",
    "lat": 33.2617871,
    "lon": -88.0950263
  },
  {
    "id": "carrollton_ga",
    "label": "Carrollton, GA",
    "lat": 33.5801103,
    "lon": -85.0766113
  },
  {
    "id": "carrollton_tx",
    "label": "Carrollton, TX",
    "lat": 32.9515472,
    "lon": -96.9034244
  },
  {
    "id": "carrollton_va",
    "label": "Carrollton, VA",
    "lat": 36.9355795,
    "lon": -76.5179385
  },
  {
    "id": "carrsville_va",
    "label": "Carrsville, VA",
    "lat": 36.708386,
    "lon": -76.8334159
  },
  {
    "id": "carson_ca",
    "label": "Carson, CA",
    "lat": 33.8322043,
    "lon": -118.2517547
  },
  {
    "id": "cartersville_ga",
    "label": "Cartersville, GA",
    "lat": 34.1652304,
    "lon": -84.7997613
  },
  {
    "id": "carterville_il",
    "label": "Carterville, IL",
    "lat": 37.7619372,
    "lon": -89.0772709
  },
  {
    "id": "carthage_nc",
    "label": "Carthage, NC",
    "lat": 35.345802,
    "lon": -79.4170543
  },
  {
    "id": "carthage_tn",
    "label": "Carthage, TN",
    "lat": 36.8548083,
    "lon": 10.3309924
  },
  {
    "id": "carthage_tx",
    "label": "Carthage, TX",
    "lat": 32.1570412,
    "lon": -94.338114
  },
  {
    "id": "caruthersville_mo",
    "label": "Caruthersville, MO",
    "lat": 36.191663,
    "lon": -89.6548449
  },
  {
    "id": "cary_nc",
    "label": "Cary, NC",
    "lat": 35.7882893,
    "lon": -78.7812081
  },
  {
    "id": "cascade_va",
    "label": "Cascade, VA",
    "lat": 36.5645826,
    "lon": -79.6697544
  },
  {
    "id": "casper_wy",
    "label": "Casper, WY",
    "lat": 42.8501191,
    "lon": -106.325138
  },
  {
    "id": "casselberry_fl",
    "label": "Casselberry, FL",
    "lat": 28.6714702,
    "lon": -81.3382005
  },
  {
    "id": "castleford_west_yorkshire",
    "label": "Castleford, WEST YORKSHIRE",
    "lat": 53.7262305,
    "lon": -1.3517218
  },
  {
    "id": "castletononhudson_ny",
    "label": "Castleton-on-hudson, NY",
    "lat": 42.5308134,
    "lon": -73.7553018
  },
  {
    "id": "castlewood_va",
    "label": "Castlewood, VA",
    "lat": 36.8786855,
    "lon": -82.2803235
  },
  {
    "id": "castro_valley_ca",
    "label": "Castro Valley, CA",
    "lat": 37.713606,
    "lon": -122.0715658
  },
  {
    "id": "catania_italia",
    "label": "Catania, ITALIA",
    "lat": 37.5023612,
    "lon": 15.0873718
  },
  {
    "id": "catasauqua_pa",
    "label": "Catasauqua, PA",
    "lat": 40.6533565,
    "lon": -75.4744827
  },
  {
    "id": "cataula_ga",
    "label": "Cataula, GA",
    "lat": 32.660792,
    "lon": -84.8688003
  },
  {
    "id": "catawba_nc",
    "label": "Catawba, NC",
    "lat": 35.6740563,
    "lon": -81.2107215
  },
  {
    "id": "catawba_sc",
    "label": "Catawba, SC",
    "lat": 34.8529233,
    "lon": -80.9111862
  },
  {
    "id": "cathedral_city_ca",
    "label": "Cathedral City, CA",
    "lat": 33.7810031,
    "lon": -116.464076
  },
  {
    "id": "catlettsburg_ky",
    "label": "Catlettsburg, KY",
    "lat": 38.4048042,
    "lon": -82.6004369
  },
  {
    "id": "catonsville_md",
    "label": "Catonsville, MD",
    "lat": 39.2609922,
    "lon": -76.7455478
  },
  {
    "id": "cave_city_ar",
    "label": "Cave City, AR",
    "lat": 35.9401748,
    "lon": -91.5480777
  },
  {
    "id": "cave_city_ky",
    "label": "Cave City, KY",
    "lat": 37.1367544,
    "lon": -85.9562169
  },
  {
    "id": "cave_creek_az",
    "label": "Cave Creek, AZ",
    "lat": 33.8333333,
    "lon": -111.950833
  },
  {
    "id": "cayce_sc",
    "label": "Cayce, SC",
    "lat": 33.9657091,
    "lon": -81.0739827
  },
  {
    "id": "cazenovia_ny",
    "label": "Cazenovia, NY",
    "lat": 42.9300668,
    "lon": -75.8526969
  },
  {
    "id": "cedar_bluff_al",
    "label": "Cedar Bluff, AL",
    "lat": 34.2200942,
    "lon": -85.6077402
  },
  {
    "id": "cedar_grove_tn",
    "label": "Cedar Grove, TN",
    "lat": 35.8170107,
    "lon": -88.5956099
  },
  {
    "id": "cedar_hill_mo",
    "label": "Cedar Hill, MO",
    "lat": 38.357791,
    "lon": -90.6314344
  },
  {
    "id": "cedar_hill_tn",
    "label": "Cedar Hill, TN",
    "lat": 36.5514333,
    "lon": -86.9991662
  },
  {
    "id": "cedar_hill_tx",
    "label": "Cedar Hill, TX",
    "lat": 32.5888072,
    "lon": -96.9553675
  },
  {
    "id": "cedar_key_fl",
    "label": "Cedar Key, FL",
    "lat": 29.1377209,
    "lon": -83.0359638
  },
  {
    "id": "cedar_knolls_nj",
    "label": "Cedar Knolls, NJ",
    "lat": 40.8214375,
    "lon": -74.4535345
  },
  {
    "id": "cedar_mountain_nc",
    "label": "Cedar Mountain, NC",
    "lat": 35.2320593,
    "lon": -82.3256723
  },
  {
    "id": "cedar_rapids_ia",
    "label": "Cedar Rapids, IA",
    "lat": 41.9758872,
    "lon": -91.6704053
  },
  {
    "id": "cedarburg_wi",
    "label": "Cedarburg, WI",
    "lat": 43.2966545,
    "lon": -87.9875348
  },
  {
    "id": "cedartown_ga",
    "label": "Cedartown, GA",
    "lat": 34.0124425,
    "lon": -85.2559398
  },
  {
    "id": "ceilndia_df",
    "label": "Ceilândia, DF",
    "lat": -15.8173391,
    "lon": -48.1045766
  },
  {
    "id": "celina_oh",
    "label": "Celina, OH",
    "lat": 40.5489358,
    "lon": -84.5702338
  },
  {
    "id": "centennial_co",
    "label": "Centennial, CO",
    "lat": 39.579155,
    "lon": -104.8769227
  },
  {
    "id": "center_tx",
    "label": "Center, TX",
    "lat": 31.7952814,
    "lon": -94.1803576
  },
  {
    "id": "centereach_ny",
    "label": "Centereach, NY",
    "lat": 40.867749,
    "lon": -73.0839793
  },
  {
    "id": "centerville_ia",
    "label": "Centerville, IA",
    "lat": 40.7344306,
    "lon": -92.8742102
  },
  {
    "id": "centerville_massachusetts",
    "label": "Centerville, MASSACHUSETTS",
    "lat": 41.6499298,
    "lon": -70.3485753
  },
  {
    "id": "centerville_oh",
    "label": "Centerville, OH",
    "lat": 39.6283928,
    "lon": -84.1593818
  },
  {
    "id": "central_city_ky",
    "label": "Central City, KY",
    "lat": 37.2939322,
    "lon": -87.1233292
  },
  {
    "id": "central_coast_nsw",
    "label": "Central Coast, NSW",
    "lat": -33.3117096,
    "lon": 151.3120675
  },
  {
    "id": "central_ct",
    "label": "Central, CT",
    "lat": 41.0742663,
    "lon": 1.1179261
  },
  {
    "id": "central_sc",
    "label": "Central, SC",
    "lat": 34.7257424,
    "lon": -82.7804999
  },
  {
    "id": "centralia_wa",
    "label": "Centralia, WA",
    "lat": 46.7204489,
    "lon": -122.96143
  },
  {
    "id": "centre_al",
    "label": "Centre, AL",
    "lat": 34.1520406,
    "lon": -85.6788531
  },
  {
    "id": "century_fl",
    "label": "Century, FL",
    "lat": 30.9732384,
    "lon": -87.2638628
  },
  {
    "id": "ceredo_wv",
    "label": "Ceredo, WV",
    "lat": 38.3964816,
    "lon": -82.5586979
  },
  {
    "id": "ceres_ca",
    "label": "Ceres, CA",
    "lat": 37.5949316,
    "lon": -120.9577098
  },
  {
    "id": "chalmette_la",
    "label": "Chalmette, LA",
    "lat": 29.944196,
    "lon": -89.9644624
  },
  {
    "id": "champaign_il",
    "label": "Champaign, IL",
    "lat": 40.1164841,
    "lon": -88.2430932
  },
  {
    "id": "chandler_az",
    "label": "Chandler, AZ",
    "lat": 33.3062031,
    "lon": -111.841185
  },
  {
    "id": "chandler_in",
    "label": "Chandler, IN",
    "lat": 38.0417114,
    "lon": -87.3680648
  },
  {
    "id": "chantilly_va",
    "label": "Chantilly, VA",
    "lat": 38.885219,
    "lon": -77.4486772
  },
  {
    "id": "chapel_hill_nc",
    "label": "Chapel Hill, NC",
    "lat": 35.9131542,
    "lon": -79.05578
  },
  {
    "id": "chapel_hill_tn",
    "label": "Chapel Hill, TN",
    "lat": 35.6264581,
    "lon": -86.6933305
  },
  {
    "id": "chapin_sc",
    "label": "Chapin, SC",
    "lat": 34.1659795,
    "lon": -81.3498212
  },
  {
    "id": "chardon_oh",
    "label": "Chardon, OH",
    "lat": 41.5824944,
    "lon": -81.2034066
  },
  {
    "id": "charlemont_ma",
    "label": "Charlemont, MA",
    "lat": 42.6275354,
    "lon": -72.874488
  },
  {
    "id": "charles_town_wv",
    "label": "Charles Town, WV",
    "lat": 39.2891836,
    "lon": -77.859581
  },
  {
    "id": "charleston_sc",
    "label": "Charleston, SC",
    "lat": 32.7884363,
    "lon": -79.9399309
  },
  {
    "id": "charleston_tn",
    "label": "Charleston, TN",
    "lat": 35.2858415,
    "lon": -84.7575018
  },
  {
    "id": "charleston_west_virginia",
    "label": "Charleston, WEST VIRGINIA",
    "lat": 38.3505995,
    "lon": -81.6332812
  },
  {
    "id": "charleston_wv",
    "label": "Charleston, WV",
    "lat": 38.3505995,
    "lon": -81.6332812
  },
  {
    "id": "charlestown_in",
    "label": "Charlestown, IN",
    "lat": 38.442857,
    "lon": -85.6620314
  },
  {
    "id": "charlotte_hall_md",
    "label": "Charlotte Hall, MD",
    "lat": 38.4773235,
    "lon": -76.7848553
  },
  {
    "id": "charlotte_nc",
    "label": "Charlotte, NC",
    "lat": 35.2272086,
    "lon": -80.8430827
  },
  {
    "id": "charlottesville_va",
    "label": "Charlottesville, VA",
    "lat": 38.029306,
    "lon": -78.4766781
  },
  {
    "id": "charlottesville_virginia",
    "label": "Charlottesville, VIRGINIA",
    "lat": 38.029306,
    "lon": -78.4766781
  },
  {
    "id": "chase_mills_ny",
    "label": "Chase Mills, NY",
    "lat": 44.8489423,
    "lon": -75.0807625
  },
  {
    "id": "chathamkent_on",
    "label": "Chatham-kent, ON",
    "lat": 42.41833,
    "lon": -82.0898417
  },
  {
    "id": "chatham_la",
    "label": "Chatham, LA",
    "lat": 32.3062644,
    "lon": -92.4504223
  },
  {
    "id": "chatsworth_ga",
    "label": "Chatsworth, GA",
    "lat": 34.7665942,
    "lon": -84.7698842
  },
  {
    "id": "chattanooga_tn",
    "label": "Chattanooga, TN",
    "lat": 35.0457219,
    "lon": -85.3094883
  },
  {
    "id": "chauvin_la",
    "label": "Chauvin, LA",
    "lat": 29.4385529,
    "lon": -90.5953651
  },
  {
    "id": "chelan_wa",
    "label": "Chelan, WA",
    "lat": 47.8012197,
    "lon": -120.6276904
  },
  {
    "id": "chelsea_mi",
    "label": "Chelsea, MI",
    "lat": 42.3180163,
    "lon": -84.020224
  },
  {
    "id": "cheraw_sc",
    "label": "Cheraw, SC",
    "lat": 34.6976564,
    "lon": -79.8833971
  },
  {
    "id": "cherokee_village_ar",
    "label": "Cherokee Village, AR",
    "lat": 36.295861,
    "lon": -91.5419811
  },
  {
    "id": "cherry_hill_nj",
    "label": "Cherry Hill, NJ",
    "lat": 39.9348351,
    "lon": -75.0307264
  },
  {
    "id": "cherry_valley_ar",
    "label": "Cherry Valley, AR",
    "lat": 35.4020287,
    "lon": -90.7531682
  },
  {
    "id": "cherryville_nc",
    "label": "Cherryville, NC",
    "lat": 35.3787442,
    "lon": -81.3789739
  },
  {
    "id": "chesapeake_va",
    "label": "Chesapeake, VA",
    "lat": 36.7168315,
    "lon": -76.2494453
  },
  {
    "id": "chesnee_sc",
    "label": "Chesnee, SC",
    "lat": 35.1484549,
    "lon": -81.8609371
  },
  {
    "id": "chester_ny",
    "label": "Chester, NY",
    "lat": 41.3624533,
    "lon": -74.2714981
  },
  {
    "id": "chesterfield_township_nj",
    "label": "Chesterfield Township, NJ",
    "lat": 40.1153966,
    "lon": -74.6412727
  },
  {
    "id": "chesterfield_twp_mi",
    "label": "Chesterfield Twp, MI",
    "lat": 42.6749681,
    "lon": -82.7973252
  },
  {
    "id": "chesterfield_mo",
    "label": "Chesterfield, MO",
    "lat": 38.6581764,
    "lon": -90.5680617
  },
  {
    "id": "chesterfield_nj",
    "label": "Chesterfield, NJ",
    "lat": 40.1153966,
    "lon": -74.6412727
  },
  {
    "id": "chesterfield_va",
    "label": "Chesterfield, VA",
    "lat": 37.3859982,
    "lon": -77.578509
  },
  {
    "id": "cheyenne_wy",
    "label": "Cheyenne, WY",
    "lat": 41.139981,
    "lon": -104.820246
  },
  {
    "id": "chicago_il",
    "label": "Chicago, IL",
    "lat": 41.8755616,
    "lon": -87.6244212
  },
  {
    "id": "chickamauga_ga",
    "label": "Chickamauga, GA",
    "lat": 34.8711497,
    "lon": -85.2902472
  },
  {
    "id": "chickasaw_al",
    "label": "Chickasaw, AL",
    "lat": 30.7637991,
    "lon": -88.0747222
  },
  {
    "id": "chicopee_ma",
    "label": "Chicopee, MA",
    "lat": 42.1487691,
    "lon": -72.6071119
  },
  {
    "id": "chiefland_fl",
    "label": "Chiefland, FL",
    "lat": 29.4749586,
    "lon": -82.8591997
  },
  {
    "id": "childersburg_al",
    "label": "Childersburg, AL",
    "lat": 33.2781686,
    "lon": -86.3549774
  },
  {
    "id": "chillicothe_il",
    "label": "Chillicothe, IL",
    "lat": 40.9161637,
    "lon": -89.4884384
  },
  {
    "id": "chillicothe_ohio",
    "label": "Chillicothe, OHIO",
    "lat": 39.3331197,
    "lon": -82.9824019
  },
  {
    "id": "china_grove_nc",
    "label": "China Grove, NC",
    "lat": 35.569306,
    "lon": -80.5817318
  },
  {
    "id": "chipley_fl",
    "label": "Chipley, FL",
    "lat": 30.7818584,
    "lon": -85.538541
  },
  {
    "id": "chippewa_pa",
    "label": "Chippewa, PA",
    "lat": 41.2378588,
    "lon": -76.7769033
  },
  {
    "id": "chireno_tx",
    "label": "Chireno, TX",
    "lat": 31.4993498,
    "lon": -94.3518691
  },
  {
    "id": "chowchilla_ca",
    "label": "Chowchilla, CA",
    "lat": 37.1229997,
    "lon": -120.2601754
  },
  {
    "id": "christiana_tn",
    "label": "Christiana, TN",
    "lat": 35.7100099,
    "lon": -86.3993653
  },
  {
    "id": "chuckey_tn",
    "label": "Chuckey, TN",
    "lat": 36.2159371,
    "lon": -82.6882068
  },
  {
    "id": "chula_vista_ca",
    "label": "Chula Vista, CA",
    "lat": 32.6400541,
    "lon": -117.084195
  },
  {
    "id": "chula_vista_california",
    "label": "Chula Vista, CALIFORNIA",
    "lat": 32.6400541,
    "lon": -117.084195
  },
  {
    "id": "church_hill_tennessee",
    "label": "Church Hill, TENNESSEE",
    "lat": 36.5223207,
    "lon": -82.7134921
  },
  {
    "id": "church_hill_tn",
    "label": "Church Hill, TN",
    "lat": 36.5223207,
    "lon": -82.7134921
  },
  {
    "id": "church_point_la",
    "label": "Church Point, LA",
    "lat": 30.4031037,
    "lon": -92.2148413
  },
  {
    "id": "cicero_il",
    "label": "Cicero, IL",
    "lat": 41.8455398,
    "lon": -87.7540199
  },
  {
    "id": "cidade_de_maputo_moambique",
    "label": "Cidade De Maputo, MOÇAMBIQUE",
    "lat": -25.966213,
    "lon": 32.56745
  },
  {
    "id": "cincinnati_oh",
    "label": "Cincinnati, OH",
    "lat": 39.1014537,
    "lon": -84.5124602
  },
  {
    "id": "cinnaminson_nj",
    "label": "Cinnaminson, NJ",
    "lat": 40.0166151,
    "lon": -74.9999754
  },
  {
    "id": "circle_pines_mn",
    "label": "Circle Pines, MN",
    "lat": 45.144882,
    "lon": -93.1553635
  },
  {
    "id": "cisco_ga",
    "label": "Cisco, GA",
    "lat": 34.9511887,
    "lon": -84.7363272
  },
  {
    "id": "citra_fl",
    "label": "Citra, FL",
    "lat": 29.4119166,
    "lon": -82.1098156
  },
  {
    "id": "citrus_heights_ca",
    "label": "Citrus Heights, CA",
    "lat": 38.7071247,
    "lon": -121.2810611
  },
  {
    "id": "citt_della_pieve_perugia",
    "label": "Città Della Pieve, PERUGIA",
    "lat": 42.9527338,
    "lon": 12.004326
  },
  {
    "id": "clanton_al",
    "label": "Clanton, AL",
    "lat": 32.8392013,
    "lon": -86.6309229
  },
  {
    "id": "claremont_nc",
    "label": "Claremont, NC",
    "lat": 35.7145776,
    "lon": -81.1461917
  },
  {
    "id": "claremore_oklahoma",
    "label": "Claremore, OKLAHOMA",
    "lat": 36.3126005,
    "lon": -95.6160686
  },
  {
    "id": "clarendon_hills_il",
    "label": "Clarendon Hills, IL",
    "lat": 41.7961237,
    "lon": -87.9551429
  },
  {
    "id": "clarendon_nc",
    "label": "Clarendon, NC",
    "lat": 34.2101689,
    "lon": -78.8453007
  },
  {
    "id": "clarinda_ia",
    "label": "Clarinda, IA",
    "lat": 40.7389796,
    "lon": -95.0371027
  },
  {
    "id": "clark_mo",
    "label": "Clark, MO",
    "lat": 40.3962004,
    "lon": -91.7362195
  },
  {
    "id": "clarkesville_ga",
    "label": "Clarkesville, GA",
    "lat": 34.6125971,
    "lon": -83.5248933
  },
  {
    "id": "clarks_hill_sc",
    "label": "Clarks Hill, SC",
    "lat": 33.6588925,
    "lon": -82.1621343
  },
  {
    "id": "clarksburg_md",
    "label": "Clarksburg, MD",
    "lat": 39.2195565,
    "lon": -77.2678413
  },
  {
    "id": "clarksdale_ms",
    "label": "Clarksdale, MS",
    "lat": 34.2006479,
    "lon": -90.5702071
  },
  {
    "id": "clarkson_ky",
    "label": "Clarkson, KY",
    "lat": 37.4953332,
    "lon": -86.2213614
  },
  {
    "id": "clarkston_wa",
    "label": "Clarkston, WA",
    "lat": 46.4162724,
    "lon": -117.045179
  },
  {
    "id": "clarksville_ar",
    "label": "Clarksville, AR",
    "lat": 35.4713108,
    "lon": -93.4664819
  },
  {
    "id": "clarksville_fl",
    "label": "Clarksville, FL",
    "lat": 30.1210759,
    "lon": -81.4842512
  },
  {
    "id": "clarksville_in",
    "label": "Clarksville, IN",
    "lat": 38.2967791,
    "lon": -85.7602087
  },
  {
    "id": "clarksville_tn",
    "label": "Clarksville, TN",
    "lat": 36.5277607,
    "lon": -87.3588703
  },
  {
    "id": "clay_city_ky",
    "label": "Clay City, KY",
    "lat": 37.8592479,
    "lon": -83.9185323
  },
  {
    "id": "clayton_ga",
    "label": "Clayton, GA",
    "lat": 33.5204959,
    "lon": -84.3591713
  },
  {
    "id": "clayton_in",
    "label": "Clayton, IN",
    "lat": 39.6892129,
    "lon": -86.5224984
  },
  {
    "id": "clayton_nc",
    "label": "Clayton, NC",
    "lat": 35.650711,
    "lon": -78.4563914
  },
  {
    "id": "clayton_oh",
    "label": "Clayton, OH",
    "lat": 39.8631101,
    "lon": -84.3605022
  },
  {
    "id": "clearfield_pa",
    "label": "Clearfield, PA",
    "lat": 40.9908706,
    "lon": -78.4457422
  },
  {
    "id": "clearfield_ut",
    "label": "Clearfield, UT",
    "lat": 41.1135837,
    "lon": -112.0244841
  },
  {
    "id": "clearwater_beach_fl",
    "label": "Clearwater Beach, FL",
    "lat": 27.9774736,
    "lon": -82.8279313
  },
  {
    "id": "clearwater_fl",
    "label": "Clearwater, FL",
    "lat": 27.9658533,
    "lon": -82.8001026
  },
  {
    "id": "clemmons_nc",
    "label": "Clemmons, NC",
    "lat": 36.0215258,
    "lon": -80.3819984
  },
  {
    "id": "clemson_sc",
    "label": "Clemson, SC",
    "lat": 34.6850749,
    "lon": -82.8364111
  },
  {
    "id": "clermont_fl",
    "label": "Clermont, FL",
    "lat": 28.5551912,
    "lon": -81.7669488
  },
  {
    "id": "clermont_ga",
    "label": "Clermont, GA",
    "lat": 34.4778752,
    "lon": -83.7735148
  },
  {
    "id": "cleveland_ga",
    "label": "Cleveland, GA",
    "lat": 34.5972449,
    "lon": -83.7633058
  },
  {
    "id": "cleveland_oh",
    "label": "Cleveland, OH",
    "lat": 41.4996574,
    "lon": -81.6936772
  },
  {
    "id": "cleveland_ohio",
    "label": "Cleveland, OHIO",
    "lat": 41.4996574,
    "lon": -81.6936772
  },
  {
    "id": "cleveland_tn",
    "label": "Cleveland, TN",
    "lat": 35.1595182,
    "lon": -84.8766115
  },
  {
    "id": "cleveland_tx",
    "label": "Cleveland, TX",
    "lat": 30.3414794,
    "lon": -95.0900115
  },
  {
    "id": "cleves_oh",
    "label": "Cleves, OH",
    "lat": 39.162299,
    "lon": -84.7491723
  },
  {
    "id": "clewiston_fl",
    "label": "Clewiston, FL",
    "lat": 26.7542264,
    "lon": -80.9342307
  },
  {
    "id": "climax_nc",
    "label": "Climax, NC",
    "lat": 35.9129138,
    "lon": -79.7175279
  },
  {
    "id": "clinton_township_mi",
    "label": "Clinton Township, MI",
    "lat": 42.5869782,
    "lon": -82.9200047
  },
  {
    "id": "clinton_twp_mi",
    "label": "Clinton Twp, MI",
    "lat": 42.5869782,
    "lon": -82.9200047
  },
  {
    "id": "clinton_ar",
    "label": "Clinton, AR",
    "lat": 35.5928879,
    "lon": -92.4573348
  },
  {
    "id": "clinton_ms",
    "label": "Clinton, MS",
    "lat": 32.3410552,
    "lon": -90.3215983
  },
  {
    "id": "clinton_nc",
    "label": "Clinton, NC",
    "lat": 34.9979453,
    "lon": -78.3233325
  },
  {
    "id": "clinton_new_jersey",
    "label": "Clinton, NEW JERSEY",
    "lat": 40.6362878,
    "lon": -74.9116603
  },
  {
    "id": "clinton_oh",
    "label": "Clinton, OH",
    "lat": 39.4259873,
    "lon": -83.8445792
  },
  {
    "id": "clinton_tn",
    "label": "Clinton, TN",
    "lat": 36.1034126,
    "lon": -84.1318632
  },
  {
    "id": "clio_mi",
    "label": "Clio, MI",
    "lat": 43.1774215,
    "lon": -83.7346897
  },
  {
    "id": "clopton_al",
    "label": "Clopton, AL",
    "lat": 31.6085002,
    "lon": -85.4299374
  },
  {
    "id": "clover_sc",
    "label": "Clover, SC",
    "lat": 35.1112478,
    "lon": -81.2264646
  },
  {
    "id": "cloverdale_ca",
    "label": "Cloverdale, CA",
    "lat": 38.8064632,
    "lon": -123.0178759
  },
  {
    "id": "cloverport_ky",
    "label": "Cloverport, KY",
    "lat": 37.8333902,
    "lon": -86.6327615
  },
  {
    "id": "clovis_ca",
    "label": "Clovis, CA",
    "lat": 36.8252277,
    "lon": -119.7029194
  },
  {
    "id": "coaling_al",
    "label": "Coaling, AL",
    "lat": 33.1590078,
    "lon": -87.340834
  },
  {
    "id": "coarsegold_ca",
    "label": "Coarsegold, CA",
    "lat": 37.2621687,
    "lon": -119.700983
  },
  {
    "id": "coatesville_pa",
    "label": "Coatesville, PA",
    "lat": 39.9831616,
    "lon": -75.8238355
  },
  {
    "id": "cochranville_pa",
    "label": "Cochranville, PA",
    "lat": 39.8917732,
    "lon": -75.9216133
  },
  {
    "id": "cocoa_beach_fl",
    "label": "Cocoa Beach, FL",
    "lat": 28.3184107,
    "lon": -80.6094959
  },
  {
    "id": "cocoa_fl",
    "label": "Cocoa, FL",
    "lat": 28.3556635,
    "lon": -80.7325345
  },
  {
    "id": "coconut_creek_fl",
    "label": "Coconut Creek, FL",
    "lat": 26.2517482,
    "lon": -80.1789351
  },
  {
    "id": "coeburn_va",
    "label": "Coeburn, VA",
    "lat": 36.9439917,
    "lon": -82.4640401
  },
  {
    "id": "coeur_dalene_id",
    "label": "Coeur D'Alene, ID",
    "lat": 47.6742994,
    "lon": -116.7811531
  },
  {
    "id": "coffs_harbour_nsw",
    "label": "Coffs Harbour, NSW",
    "lat": -30.2962407,
    "lon": 153.1135293
  },
  {
    "id": "coker_al",
    "label": "Coker, AL",
    "lat": 33.2459512,
    "lon": -87.6877882
  },
  {
    "id": "colbert_ga",
    "label": "Colbert, GA",
    "lat": 34.0378903,
    "lon": -83.2126517
  },
  {
    "id": "coleford_gloucestershire",
    "label": "Coleford, GLOUCESTERSHIRE",
    "lat": 51.7938786,
    "lon": -2.6183238
  },
  {
    "id": "colfax_nc",
    "label": "Colfax, NC",
    "lat": 36.1126365,
    "lon": -80.0144842
  },
  {
    "id": "colfax_wi",
    "label": "Colfax, WI",
    "lat": 44.9987625,
    "lon": -91.7273032
  },
  {
    "id": "college_grove_tn",
    "label": "College Grove, TN",
    "lat": 35.788399,
    "lon": -86.6744409
  },
  {
    "id": "collegeville_pa",
    "label": "Collegeville, PA",
    "lat": 40.1856597,
    "lon": -75.451571
  },
  {
    "id": "colleyville_tx",
    "label": "Colleyville, TX",
    "lat": 32.8809603,
    "lon": -97.155012
  },
  {
    "id": "collierville_tn",
    "label": "Collierville, TN",
    "lat": 35.042036,
    "lon": -89.6645266
  },
  {
    "id": "collins_ms",
    "label": "Collins, MS",
    "lat": 31.6457944,
    "lon": -89.5553297
  },
  {
    "id": "collinsville_al",
    "label": "Collinsville, AL",
    "lat": 34.2648308,
    "lon": -85.8608643
  },
  {
    "id": "collinsville_il",
    "label": "Collinsville, IL",
    "lat": 38.6703267,
    "lon": -89.9845476
  },
  {
    "id": "collinsville_ok",
    "label": "Collinsville, OK",
    "lat": 36.3661205,
    "lon": -95.8398108
  },
  {
    "id": "colonial_heights_va",
    "label": "Colonial Heights, VA",
    "lat": 37.2555718,
    "lon": -77.4112016
  },
  {
    "id": "colorado_springs_co",
    "label": "Colorado Springs, CO",
    "lat": 38.8339578,
    "lon": -104.825348
  },
  {
    "id": "colts_neck_nj",
    "label": "Colts Neck, NJ",
    "lat": 40.2876108,
    "lon": -74.1723652
  },
  {
    "id": "columbia_ky",
    "label": "Columbia, KY",
    "lat": 37.102841,
    "lon": -85.3063504
  },
  {
    "id": "columbia_la",
    "label": "Columbia, LA",
    "lat": 32.1051567,
    "lon": -92.0779129
  },
  {
    "id": "columbia_md",
    "label": "Columbia, MD",
    "lat": 39.1938429,
    "lon": -76.8646092
  },
  {
    "id": "columbia_mo",
    "label": "Columbia, MO",
    "lat": 38.951883,
    "lon": -92.3337366
  },
  {
    "id": "columbia_ms",
    "label": "Columbia, MS",
    "lat": 31.2518582,
    "lon": -89.8353099
  },
  {
    "id": "columbia_sc",
    "label": "Columbia, SC",
    "lat": 34.000754,
    "lon": -81.0352313
  },
  {
    "id": "columbia_tn",
    "label": "Columbia, TN",
    "lat": 35.6148165,
    "lon": -87.0338464
  },
  {
    "id": "columbus_ga",
    "label": "Columbus, GA",
    "lat": 32.4610708,
    "lon": -84.9880449
  },
  {
    "id": "columbus_in",
    "label": "Columbus, IN",
    "lat": 39.2014405,
    "lon": -85.9213796
  },
  {
    "id": "columbus_ms",
    "label": "Columbus, MS",
    "lat": 33.4956744,
    "lon": -88.4272627
  },
  {
    "id": "columbus_nc",
    "label": "Columbus, NC",
    "lat": 34.2814497,
    "lon": -78.666593
  },
  {
    "id": "columbus_oh",
    "label": "Columbus, OH",
    "lat": 39.9622601,
    "lon": -83.0007065
  },
  {
    "id": "columbus_texas",
    "label": "Columbus, TEXAS",
    "lat": 29.7066181,
    "lon": -96.539699
  },
  {
    "id": "commack_ny",
    "label": "Commack, NY",
    "lat": 40.8393515,
    "lon": -73.2858994
  },
  {
    "id": "commerce_ga",
    "label": "Commerce, GA",
    "lat": 34.203997,
    "lon": -83.4571058
  },
  {
    "id": "como_ms",
    "label": "Como, MS",
    "lat": 34.5112588,
    "lon": -89.9399403
  },
  {
    "id": "concord_ca",
    "label": "Concord, CA",
    "lat": 37.9768525,
    "lon": -122.0335624
  },
  {
    "id": "concord_california",
    "label": "Concord, CALIFORNIA",
    "lat": 37.9768525,
    "lon": -122.0335624
  },
  {
    "id": "concord_nc",
    "label": "Concord, NC",
    "lat": 35.4094178,
    "lon": -80.5800049
  },
  {
    "id": "conley_ga",
    "label": "Conley, GA",
    "lat": 33.635655,
    "lon": -84.3293733
  },
  {
    "id": "connellsville_pa",
    "label": "Connellsville, PA",
    "lat": 40.0178522,
    "lon": -79.5894828
  },
  {
    "id": "connelly_springs_nc",
    "label": "Connelly Springs, NC",
    "lat": 35.7399645,
    "lon": -81.5029788
  },
  {
    "id": "connersville_in",
    "label": "Connersville, IN",
    "lat": 39.6411589,
    "lon": -85.1410748
  },
  {
    "id": "conover_nc",
    "label": "Conover, NC",
    "lat": 35.7065004,
    "lon": -81.2184383
  },
  {
    "id": "conroe_tx",
    "label": "Conroe, TX",
    "lat": 30.3118769,
    "lon": -95.4560512
  },
  {
    "id": "conshohocken_pa",
    "label": "Conshohocken, PA",
    "lat": 40.0792766,
    "lon": -75.3015714
  },
  {
    "id": "contagem_mg",
    "label": "Contagem, MG",
    "lat": -19.9132749,
    "lon": -44.0840953
  },
  {
    "id": "conway_ar",
    "label": "Conway, AR",
    "lat": 35.0891932,
    "lon": -92.4398402
  },
  {
    "id": "conway_nh",
    "label": "Conway, NH",
    "lat": 43.9784926,
    "lon": -71.1205372
  },
  {
    "id": "conway_sc",
    "label": "Conway, SC",
    "lat": 33.8360035,
    "lon": -79.0478143
  },
  {
    "id": "conyers_ga",
    "label": "Conyers, GA",
    "lat": 33.6676103,
    "lon": -84.0176904
  },
  {
    "id": "cookeville_tn",
    "label": "Cookeville, TN",
    "lat": 36.1623886,
    "lon": -85.4997057
  },
  {
    "id": "coon_rapids_mn",
    "label": "Coon Rapids, MN",
    "lat": 45.1728923,
    "lon": -93.3023898
  },
  {
    "id": "coos_bay_or",
    "label": "Coos Bay, OR",
    "lat": 43.3678937,
    "lon": -124.2174647
  },
  {
    "id": "coplay_pa",
    "label": "Coplay, PA",
    "lat": 40.6700965,
    "lon": -75.4954612
  },
  {
    "id": "copperas_cove_texas",
    "label": "Copperas Cove, TEXAS",
    "lat": 31.124062,
    "lon": -97.9030785
  },
  {
    "id": "copperas_cove_tx",
    "label": "Copperas Cove, TX",
    "lat": 31.124062,
    "lon": -97.9030785
  },
  {
    "id": "coquitlam_bc",
    "label": "Coquitlam, BC",
    "lat": 49.2842958,
    "lon": -122.793281
  },
  {
    "id": "coral_gables_fl",
    "label": "Coral Gables, FL",
    "lat": 25.7331105,
    "lon": -80.2585107
  },
  {
    "id": "coral_springs_fl",
    "label": "Coral Springs, FL",
    "lat": 26.271192,
    "lon": -80.2706044
  },
  {
    "id": "coralville_ia",
    "label": "Coralville, IA",
    "lat": 41.6759977,
    "lon": -91.580705
  },
  {
    "id": "corbin_ky",
    "label": "Corbin, KY",
    "lat": 36.9486986,
    "lon": -84.0968761
  },
  {
    "id": "crdoba_cb",
    "label": "Córdoba, CB",
    "lat": -2.2636371,
    "lon": -78.8455457
  },
  {
    "id": "crdoba_crdoba",
    "label": "Córdoba, CÓRDOBA",
    "lat": 37.8845813,
    "lon": -4.7760138
  },
  {
    "id": "cordova_tn",
    "label": "Cordova, TN",
    "lat": 35.1556451,
    "lon": -89.7761955
  },
  {
    "id": "corinth_ms",
    "label": "Corinth, MS",
    "lat": 34.9343599,
    "lon": -88.5223353
  },
  {
    "id": "corinth_tx",
    "label": "Corinth, TX",
    "lat": 33.1540091,
    "lon": -97.0647322
  },
  {
    "id": "cornelius_nc",
    "label": "Cornelius, NC",
    "lat": 35.481705,
    "lon": -80.8590006
  },
  {
    "id": "cornell_il",
    "label": "Cornell, IL",
    "lat": 40.9900326,
    "lon": -88.7292337
  },
  {
    "id": "cornersville_tn",
    "label": "Cornersville, TN",
    "lat": 35.3614649,
    "lon": -86.8397237
  },
  {
    "id": "corning_ar",
    "label": "Corning, AR",
    "lat": 36.4092192,
    "lon": -90.5831267
  },
  {
    "id": "corolla_nc",
    "label": "Corolla, NC",
    "lat": 36.3847464,
    "lon": -75.8286983
  },
  {
    "id": "corona_ca",
    "label": "Corona, CA",
    "lat": 33.8752945,
    "lon": -117.566444
  },
  {
    "id": "coronado_ca",
    "label": "Coronado, CA",
    "lat": 32.6915199,
    "lon": -117.1766947
  },
  {
    "id": "corpus_christi_tx",
    "label": "Corpus Christi, TX",
    "lat": 27.7635302,
    "lon": -97.4033191
  },
  {
    "id": "corryton_tn",
    "label": "Corryton, TN",
    "lat": 36.1536937,
    "lon": -83.7824062
  },
  {
    "id": "corsicana_tx",
    "label": "Corsicana, TX",
    "lat": 32.0938236,
    "lon": -96.464675
  },
  {
    "id": "cortland_ny",
    "label": "Cortland, NY",
    "lat": 42.5842136,
    "lon": -76.0704906
  },
  {
    "id": "corydon_in",
    "label": "Corydon, IN",
    "lat": 38.2129325,
    "lon": -86.125386
  },
  {
    "id": "cosby_tn",
    "label": "Cosby, TN",
    "lat": 35.8173184,
    "lon": -83.2468213
  },
  {
    "id": "costa_mesa_ca",
    "label": "Costa Mesa, CA",
    "lat": 33.6633386,
    "lon": -117.903317
  },
  {
    "id": "cottage_grove_mn",
    "label": "Cottage Grove, MN",
    "lat": 44.8277446,
    "lon": -92.9438218
  },
  {
    "id": "cotton_valley_la",
    "label": "Cotton Valley, LA",
    "lat": 32.8193093,
    "lon": -93.4176721
  },
  {
    "id": "cottondale_al",
    "label": "Cottondale, AL",
    "lat": 33.1998045,
    "lon": -87.4530148
  },
  {
    "id": "cottondale_fl",
    "label": "Cottondale, FL",
    "lat": 30.7971363,
    "lon": -85.3765965
  },
  {
    "id": "cottontown_tn",
    "label": "Cottontown, TN",
    "lat": 36.4514343,
    "lon": -86.53805
  },
  {
    "id": "counce_tn",
    "label": "Counce, TN",
    "lat": 35.0423075,
    "lon": -88.2733741
  },
  {
    "id": "council_bluffs_ia",
    "label": "Council Bluffs, IA",
    "lat": 41.258841,
    "lon": -95.8519484
  },
  {
    "id": "countryside_il",
    "label": "Countryside, IL",
    "lat": 41.7771605,
    "lon": -87.8729748
  },
  {
    "id": "courtland_ms",
    "label": "Courtland, MS",
    "lat": 34.2409438,
    "lon": -89.9428679
  },
  {
    "id": "covina_ca",
    "label": "Covina, CA",
    "lat": 34.0877926,
    "lon": -117.8891164
  },
  {
    "id": "covington_ga",
    "label": "Covington, GA",
    "lat": 33.5966005,
    "lon": -83.8598742
  },
  {
    "id": "covington_la",
    "label": "Covington, LA",
    "lat": 30.4753525,
    "lon": -90.1010474
  },
  {
    "id": "cowarts_al",
    "label": "Cowarts, AL",
    "lat": 31.2003319,
    "lon": -85.3047506
  },
  {
    "id": "cranberry_twp_pa",
    "label": "Cranberry Twp, PA",
    "lat": 40.7099343,
    "lon": -80.1060506
  },
  {
    "id": "crandall_ga",
    "label": "Crandall, GA",
    "lat": 34.8667459,
    "lon": -84.7454939
  },
  {
    "id": "crawfordville_fl",
    "label": "Crawfordville, FL",
    "lat": 30.1760358,
    "lon": -84.3751778
  },
  {
    "id": "cream_ridge_nj",
    "label": "Cream Ridge, NJ",
    "lat": 40.1312275,
    "lon": -74.5350037
  },
  {
    "id": "creedmoor_nc",
    "label": "Creedmoor, NC",
    "lat": 36.122741,
    "lon": -78.6862272
  },
  {
    "id": "crescent_city_fl",
    "label": "Crescent City, FL",
    "lat": 29.4302514,
    "lon": -81.5106288
  },
  {
    "id": "cresson_pa",
    "label": "Cresson, PA",
    "lat": 40.4597938,
    "lon": -78.5916837
  },
  {
    "id": "crest_hill_il",
    "label": "Crest Hill, IL",
    "lat": 41.554753,
    "lon": -88.0986709
  },
  {
    "id": "crestview_fl",
    "label": "Crestview, FL",
    "lat": 30.7621326,
    "lon": -86.5705084
  },